[{"ident": "BG-JAM", "name": "Bezmer Air Base", "lon": "26.352", "lat": "42.455"}, {"ident": "BIAR", "name": "Akureyri Airport", "lon": "-18.073", "lat": "65.660"}, {"ident": "BIEG", "name": "Egilssta\u00f0ir Airport", "lon": "-14.401", "lat": "65.283"}, {"ident": "BIHN", "name": "Hornafj\u00f6r\u00f0ur Airport", "lon": "-15.227", "lat": "64.296"}, {"ident": "BIHU", "name": "H\u00fasav\u00edk Airport", "lon": "-17.426", "lat": "65.952"}, {"ident": "BIIS", "name": "\u00cdsafj\u00f6r\u00f0ur Airport", "lon": "-23.135", "lat": "66.058"}, {"ident": "BIKF", "name": "Keflavik International Airport", "lon": "-22.606", "lat": "63.985"}, {"ident": "BIRK", "name": "Reykjavik Airport", "lon": "-21.941", "lat": "64.130"}, {"ident": "BISI", "name": "Siglufj\u00f6r\u00f0ur Airport", "lon": "-18.908", "lat": "66.138"}, {"ident": "BIVM", "name": "Vestmannaeyjar Airport", "lon": "-20.279", "lat": "63.424"}, {"ident": "BKPR", "name": "Pri\u0161tina Adem Jashari International Airport", "lon": "21.036", "lat": "42.573"}, {"ident": "BY-0001", "name": "Balbasovo Air Base", "lon": "30.297", "lat": "54.440"}, {"ident": "BY-0003", "name": "Bobrovichi Air Base", "lon": "29.360", "lat": "52.278"}, {"ident": "BY-0006", "name": "Osovtsy Air Base", "lon": "24.884", "lat": "52.557"}, {"ident": "EBAW", "name": "Antwerp International Airport (Deurne)", "lon": "4.460", "lat": "51.189"}, {"ident": "EBBE", "name": "Beauvechain Air Base", "lon": "4.768", "lat": "50.759"}, {"ident": "EBBL", "name": "Kleine Brogel Air Base", "lon": "5.470", "lat": "51.168"}, {"ident": "EBBR", "name": "Brussels Airport", "lon": "4.484", "lat": "50.901"}, {"ident": "EBCI", "name": "Brussels South Charleroi Airport", "lon": "4.454", "lat": "50.459"}, {"ident": "EBCV", "name": "Chi\u00e8vres Air Base", "lon": "3.831", "lat": "50.576"}, {"ident": "EBFN", "name": "Koksijde Air Base", "lon": "2.653", "lat": "51.090"}, {"ident": "EBFS", "name": "Florennes Air Base", "lon": "4.646", "lat": "50.243"}, {"ident": "EBKT", "name": "Wevelgem Airport", "lon": "3.205", "lat": "50.817"}, {"ident": "EBLG", "name": "Li\u00e8ge Airport", "lon": "5.443", "lat": "50.637"}, {"ident": "EBOS", "name": "Ostend-Bruges International Airport", "lon": "2.862", "lat": "51.199"}, {"ident": "EDAC", "name": "Altenburg-Nobitz Airport", "lon": "12.506", "lat": "50.982"}, {"ident": "EDAH", "name": "Heringsdorf Airport", "lon": "14.152", "lat": "53.879"}, {"ident": "EDBM", "name": "Magdeburg \"City\" Airport", "lon": "11.626", "lat": "52.074"}, {"ident": "EDBN", "name": "Neubrandenburg Airport", "lon": "13.306", "lat": "53.602"}, {"ident": "EDBR", "name": "Rothenburg/G\u00f6rlitz Airport", "lon": "14.950", "lat": "51.363"}, {"ident": "EDDB", "name": "Berlin Brandenburg Airport", "lon": "13.494", "lat": "52.351"}, {"ident": "EDDC", "name": "Dresden Airport", "lon": "13.767", "lat": "51.133"}, {"ident": "EDDE", "name": "Erfurt Airport", "lon": "10.958", "lat": "50.980"}, {"ident": "EDDF", "name": "Frankfurt am Main Airport", "lon": "8.571", "lat": "50.033"}, {"ident": "EDDG", "name": "M\u00fcnster Osnabr\u00fcck Airport", "lon": "7.685", "lat": "52.135"}, {"ident": "EDDH", "name": "Hamburg Helmut Schmidt Airport", "lon": "9.988", "lat": "53.630"}, {"ident": "EDDK", "name": "Cologne Bonn Airport", "lon": "7.143", "lat": "50.866"}, {"ident": "EDDL", "name": "D\u00fcsseldorf Airport", "lon": "6.767", "lat": "51.290"}, {"ident": "EDDM", "name": "Munich Airport", "lon": "11.786", "lat": "48.354"}, {"ident": "EDDN", "name": "Nuremberg Airport", "lon": "11.078", "lat": "49.499"}, {"ident": "EDDP", "name": "Leipzig/Halle Airport", "lon": "12.236", "lat": "51.424"}, {"ident": "EDDR", "name": "Saarbr\u00fccken Airport", "lon": "7.110", "lat": "49.215"}, {"ident": "EDDS", "name": "Stuttgart Airport", "lon": "9.222", "lat": "48.690"}, {"ident": "EDDV", "name": "Hannover Airport", "lon": "9.685", "lat": "52.461"}, {"ident": "EDDW", "name": "Bremen Airport", "lon": "8.787", "lat": "53.048"}, {"ident": "EDFE", "name": "Frankfurt-Egelsbach Airport", "lon": "8.646", "lat": "49.960"}, {"ident": "EDFH", "name": "Frankfurt-Hahn Airport", "lon": "7.264", "lat": "49.949"}, {"ident": "EDFM", "name": "Mannheim-City Airport", "lon": "8.514", "lat": "49.473"}, {"ident": "EDFZ", "name": "Mainz-Finthen Airport", "lon": "8.147", "lat": "49.967"}, {"ident": "EDGE", "name": "Eisenach-Kindel Airport", "lon": "10.480", "lat": "50.992"}, {"ident": "EDGS", "name": "Siegerland Airport", "lon": "8.083", "lat": "50.708"}, {"ident": "EDHI", "name": "Hamburg-Finkenwerder Airport", "lon": "9.836", "lat": "53.535"}, {"ident": "EDHK", "name": "Kiel-Holtenau Airport", "lon": "10.145", "lat": "54.379"}, {"ident": "EDHL", "name": "L\u00fcbeck Blankensee Airport", "lon": "10.719", "lat": "53.805"}, {"ident": "EDJA", "name": "Memmingen Allgau Airport", "lon": "10.240", "lat": "47.989"}, {"ident": "EDLN", "name": "M\u00f6nchengladbach Airport", "lon": "6.504", "lat": "51.230"}, {"ident": "EDLP", "name": "Paderborn Lippstadt Airport", "lon": "8.616", "lat": "51.614"}, {"ident": "EDLV", "name": "Weeze Airport", "lon": "6.142", "lat": "51.602"}, {"ident": "EDLW", "name": "Dortmund Airport", "lon": "7.612", "lat": "51.518"}, {"ident": "EDMA", "name": "Augsburg Airport", "lon": "10.932", "lat": "48.425"}, {"ident": "EDMO", "name": "Oberpfaffenhofen Airport", "lon": "11.283", "lat": "48.081"}, {"ident": "EDNY", "name": "Friedrichshafen Airport", "lon": "9.511", "lat": "47.671"}, {"ident": "EDOP", "name": "Schwerin Parchim Airport", "lon": "11.783", "lat": "53.427"}, {"ident": "EDQA", "name": "Airport Bamberg-Breitenau", "lon": "10.914", "lat": "49.920"}, {"ident": "EDQD", "name": "Bayreuth Airport", "lon": "11.640", "lat": "49.985"}, {"ident": "EDQM", "name": "Hof-Plauen Airport", "lon": "11.856", "lat": "50.289"}, {"ident": "EDSB", "name": "Karlsruhe Baden-Baden Airport", "lon": "8.080", "lat": "48.779"}, {"ident": "EDTD", "name": "Flugplatz Donaueschingen-Villingen", "lon": "8.522", "lat": "47.973"}, {"ident": "EDTL", "name": "Lahr Airport", "lon": "7.828", "lat": "48.369"}, {"ident": "EDTY", "name": "Adolf W\u00fcrth Airport", "lon": "9.784", "lat": "49.118"}, {"ident": "EDUZ", "name": "Flugplatz Zerbst", "lon": "12.149", "lat": "52.001"}, {"ident": "EDVE", "name": "Braunschweig-Wolfsburg Airport", "lon": "10.556", "lat": "52.319"}, {"ident": "EDVK", "name": "Kassel-Calden Airport", "lon": "9.385", "lat": "51.417"}, {"ident": "EDXW", "name": "Westerland Sylt Airport", "lon": "8.340", "lat": "54.913"}, {"ident": "EEEI", "name": "\u00c4mari Air Base", "lon": "24.208", "lat": "59.260"}, {"ident": "EEKA", "name": "K\u00e4rdla Airport", "lon": "22.831", "lat": "58.991"}, {"ident": "EEKE", "name": "Kuressaare Airport", "lon": "22.510", "lat": "58.230"}, {"ident": "EEPU", "name": "P\u00e4rnu Airport", "lon": "24.473", "lat": "58.419"}, {"ident": "EETN", "name": "Lennart Meri Tallinn Airport", "lon": "24.833", "lat": "59.413"}, {"ident": "EETU", "name": "Tartu Airport", "lon": "26.690", "lat": "58.307"}, {"ident": "EFET", "name": "Enontekio Airport", "lon": "23.424", "lat": "68.363"}, {"ident": "EFHA", "name": "Halli Airport", "lon": "24.787", "lat": "61.856"}, {"ident": "EFHF", "name": "Helsinki Malmi Airport", "lon": "25.043", "lat": "60.255"}, {"ident": "EFHK", "name": "Helsinki Vantaa Airport", "lon": "24.963", "lat": "60.317"}, {"ident": "EFIT", "name": "Kitee Airport", "lon": "30.074", "lat": "62.166"}, {"ident": "EFIV", "name": "Ivalo Airport", "lon": "27.405", "lat": "68.607"}, {"ident": "EFJO", "name": "Joensuu Airport", "lon": "29.608", "lat": "62.663"}, {"ident": "EFJY", "name": "Jyv\u00e4skyl\u00e4 Airport", "lon": "25.678", "lat": "62.400"}, {"ident": "EFKA", "name": "Kauhava Airfield", "lon": "23.051", "lat": "63.127"}, {"ident": "EFKE", "name": "Kemi-Tornio Airport", "lon": "24.582", "lat": "65.779"}, {"ident": "EFKI", "name": "Kajaani Airport", "lon": "27.692", "lat": "64.285"}, {"ident": "EFKJ", "name": "Kauhajoki Airfield", "lon": "22.393", "lat": "62.463"}, {"ident": "EFKK", "name": "Kokkola-Pietarsaari Airport", "lon": "23.143", "lat": "63.721"}, {"ident": "EFKS", "name": "Kuusamo Airport", "lon": "29.239", "lat": "65.988"}, {"ident": "EFKT", "name": "Kittil\u00e4 Airport", "lon": "24.847", "lat": "67.701"}, {"ident": "EFKU", "name": "Kuopio Airport", "lon": "27.798", "lat": "63.007"}, {"ident": "EFLP", "name": "Lappeenranta Airport", "lon": "28.145", "lat": "61.045"}, {"ident": "EFMA", "name": "Mariehamn Airport", "lon": "19.898", "lat": "60.122"}, {"ident": "EFMI", "name": "Mikkeli Airport", "lon": "27.202", "lat": "61.687"}, {"ident": "EFOU", "name": "Oulu Airport", "lon": "25.355", "lat": "64.930"}, {"ident": "EFPO", "name": "Pori Airport", "lon": "21.800", "lat": "61.462"}, {"ident": "EFPR", "name": "Helsinki East-Redstone Airport", "lon": "26.594", "lat": "60.479"}, {"ident": "EFRO", "name": "Rovaniemi Airport", "lon": "25.830", "lat": "66.565"}, {"ident": "EFSA", "name": "Savonlinna Airport", "lon": "28.945", "lat": "61.943"}, {"ident": "EFSI", "name": "Sein\u00e4joki Airport", "lon": "22.832", "lat": "62.692"}, {"ident": "EFSO", "name": "Sodankyla Airport", "lon": "26.619", "lat": "67.395"}, {"ident": "EFTP", "name": "Tampere-Pirkkala Airport", "lon": "23.604", "lat": "61.414"}, {"ident": "EFTU", "name": "Turku Airport", "lon": "22.263", "lat": "60.514"}, {"ident": "EFUT", "name": "Utti Air Base", "lon": "26.938", "lat": "60.896"}, {"ident": "EFVA", "name": "Vaasa Airport", "lon": "21.762", "lat": "63.051"}, {"ident": "EFVR", "name": "Varkaus Airport", "lon": "27.869", "lat": "62.171"}, {"ident": "EFYL", "name": "Ylivieska Airfield", "lon": "24.725", "lat": "64.055"}, {"ident": "EGAA", "name": "Belfast International Airport", "lon": "-6.216", "lat": "54.658"}, {"ident": "EGAB", "name": "Enniskillen/St Angelo Airport", "lon": "-7.652", "lat": "54.399"}, {"ident": "EGAC", "name": "George Best Belfast City Airport", "lon": "-5.872", "lat": "54.618"}, {"ident": "EGAE", "name": "City of Derry Airport", "lon": "-7.161", "lat": "55.043"}, {"ident": "EGBB", "name": "Birmingham International Airport", "lon": "-1.748", "lat": "52.454"}, {"ident": "EGBE", "name": "Coventry Airport", "lon": "-1.480", "lat": "52.370"}, {"ident": "EGBJ", "name": "Gloucestershire Airport", "lon": "-2.167", "lat": "51.894"}, {"ident": "EGBN", "name": "Nottingham Airport", "lon": "-1.079", "lat": "52.920"}, {"ident": "EGCC", "name": "Manchester Airport", "lon": "-2.280", "lat": "53.349"}, {"ident": "EGCN", "name": "Robin Hood Doncaster Sheffield Airport", "lon": "-1.011", "lat": "53.481"}, {"ident": "EGDC", "name": "Royal Marines Base Chivenor Airport", "lon": "-4.150", "lat": "51.087"}, {"ident": "EGDM", "name": "MoD Boscombe Down Airport", "lon": "-1.747", "lat": "51.152"}, {"ident": "EGDR", "name": "RNAS Culdrose", "lon": "-5.256", "lat": "50.086"}, {"ident": "EGDX", "name": "St. Athan Airport", "lon": "-3.436", "lat": "51.405"}, {"ident": "EGDY", "name": "RNAS Yeovilton", "lon": "-2.639", "lat": "51.009"}, {"ident": "EGEC", "name": "Campbeltown Airport", "lon": "-5.686", "lat": "55.437"}, {"ident": "EGED", "name": "Eday Airport", "lon": "-2.772", "lat": "59.191"}, {"ident": "EGFE", "name": "Haverfordwest Airport", "lon": "-4.961", "lat": "51.833"}, {"ident": "EGFF", "name": "Cardiff International Airport", "lon": "-3.343", "lat": "51.397"}, {"ident": "EGFH", "name": "Swansea Airport", "lon": "-4.068", "lat": "51.605"}, {"ident": "EGGD", "name": "Bristol Airport", "lon": "-2.719", "lat": "51.383"}, {"ident": "EGGP", "name": "Liverpool John Lennon Airport", "lon": "-2.850", "lat": "53.334"}, {"ident": "EGGW", "name": "London Luton Airport", "lon": "-0.368", "lat": "51.875"}, {"ident": "EGHH", "name": "Bournemouth Airport", "lon": "-1.843", "lat": "50.780"}, {"ident": "EGHI", "name": "Southampton Airport", "lon": "-1.357", "lat": "50.950"}, {"ident": "EGHL", "name": "Lasham Airfield", "lon": "-1.034", "lat": "51.187"}, {"ident": "EGHQ", "name": "Newquay Cornwall Airport", "lon": "-4.995", "lat": "50.441"}, {"ident": "EGJB", "name": "Guernsey Airport", "lon": "-2.602", "lat": "49.435"}, {"ident": "EGJJ", "name": "Jersey Airport", "lon": "-2.196", "lat": "49.208"}, {"ident": "EGKA", "name": "Shoreham Airport", "lon": "-0.297", "lat": "50.836"}, {"ident": "EGKB", "name": "London Biggin Hill Airport", "lon": "0.032", "lat": "51.331"}, {"ident": "EGKK", "name": "London Gatwick Airport", "lon": "-0.190", "lat": "51.148"}, {"ident": "EGLC", "name": "London City Airport", "lon": "0.055", "lat": "51.505"}, {"ident": "EGLF", "name": "Farnborough Airport", "lon": "-0.776", "lat": "51.276"}, {"ident": "EGLK", "name": "Blackbushe Airport", "lon": "-0.848", "lat": "51.324"}, {"ident": "EGLL", "name": "London Heathrow Airport", "lon": "-0.462", "lat": "51.471"}, {"ident": "EGMC", "name": "Southend Airport", "lon": "0.696", "lat": "51.571"}, {"ident": "EGMD", "name": "Lydd Airport", "lon": "0.939", "lat": "50.956"}, {"ident": "EGNC", "name": "Carlisle Airport", "lon": "-2.809", "lat": "54.938"}, {"ident": "EGNH", "name": "Blackpool International Airport", "lon": "-3.029", "lat": "53.772"}, {"ident": "EGNJ", "name": "Humberside Airport", "lon": "-0.351", "lat": "53.574"}, {"ident": "EGNL", "name": "Barrow Walney Island Airport", "lon": "-3.268", "lat": "54.129"}, {"ident": "EGNM", "name": "Leeds Bradford Airport", "lon": "-1.661", "lat": "53.866"}, {"ident": "EGNO", "name": "Warton Aerodrome", "lon": "-2.883", "lat": "53.745"}, {"ident": "EGNR", "name": "Hawarden Airport", "lon": "-2.978", "lat": "53.178"}, {"ident": "EGNS", "name": "Isle of Man Airport", "lon": "-4.624", "lat": "54.083"}, {"ident": "EGNT", "name": "Newcastle Airport", "lon": "-1.692", "lat": "55.037"}, {"ident": "EGNV", "name": "Durham Tees Valley Airport", "lon": "-1.429", "lat": "54.509"}, {"ident": "EGNX", "name": "East Midlands Airport", "lon": "-1.328", "lat": "52.831"}, {"ident": "EGOM", "name": "RAF Spadeadam", "lon": "-2.550", "lat": "55.050"}, {"ident": "EGOS", "name": "RAF Shawbury", "lon": "-2.668", "lat": "52.798"}, {"ident": "EGOV", "name": "Anglesey Airport", "lon": "-4.535", "lat": "53.248"}, {"ident": "EGPA", "name": "Kirkwall Airport", "lon": "-2.905", "lat": "58.958"}, {"ident": "EGPB", "name": "Sumburgh Airport", "lon": "-1.296", "lat": "59.879"}, {"ident": "EGPC", "name": "Wick Airport", "lon": "-3.093", "lat": "58.459"}, {"ident": "EGPD", "name": "Aberdeen Dyce Airport", "lon": "-2.198", "lat": "57.202"}, {"ident": "EGPE", "name": "Inverness Airport", "lon": "-4.048", "lat": "57.542"}, {"ident": "EGPF", "name": "Glasgow International Airport", "lon": "-4.433", "lat": "55.872"}, {"ident": "EGPH", "name": "Edinburgh Airport", "lon": "-3.372", "lat": "55.950"}, {"ident": "EGPI", "name": "Islay Airport", "lon": "-6.257", "lat": "55.682"}, {"ident": "EGPK", "name": "Glasgow Prestwick Airport", "lon": "-4.587", "lat": "55.509"}, {"ident": "EGPL", "name": "Benbecula Airport", "lon": "-7.363", "lat": "57.481"}, {"ident": "EGPM", "name": "Scatsta Airport", "lon": "-1.296", "lat": "60.433"}, {"ident": "EGPN", "name": "Dundee Airport", "lon": "-3.026", "lat": "56.452"}, {"ident": "EGPO", "name": "Stornoway Airport", "lon": "-6.331", "lat": "58.216"}, {"ident": "EGPR", "name": "Barra Airport", "lon": "-7.443", "lat": "57.023"}, {"ident": "EGPU", "name": "Tiree Airport", "lon": "-6.869", "lat": "56.499"}, {"ident": "EGQK", "name": "RAF Kinloss", "lon": "-3.561", "lat": "57.649"}, {"ident": "EGQL", "name": "RAF Leuchars", "lon": "-2.868", "lat": "56.373"}, {"ident": "EGQS", "name": "RAF Lossiemouth", "lon": "-3.339", "lat": "57.705"}, {"ident": "EGSC", "name": "Cambridge Airport", "lon": "0.175", "lat": "52.205"}, {"ident": "EGSH", "name": "Norwich International Airport", "lon": "1.283", "lat": "52.676"}, {"ident": "EGSS", "name": "London Stansted Airport", "lon": "0.235", "lat": "51.885"}, {"ident": "EGTC", "name": "Cranfield Airport", "lon": "-0.617", "lat": "52.072"}, {"ident": "EGTE", "name": "Exeter International Airport", "lon": "-3.414", "lat": "50.734"}, {"ident": "EGTK", "name": "Oxford (Kidlington) Airport", "lon": "-1.320", "lat": "51.837"}, {"ident": "EGUB", "name": "RAF Benson", "lon": "-1.096", "lat": "51.616"}, {"ident": "EGUL", "name": "RAF Lakenheath", "lon": "0.561", "lat": "52.409"}, {"ident": "EGUN", "name": "RAF Mildenhall", "lon": "0.486", "lat": "52.362"}, {"ident": "EGUW", "name": "Wattisham Airfield", "lon": "0.956", "lat": "52.127"}, {"ident": "EGUY", "name": "RAF Wyton", "lon": "-0.108", "lat": "52.357"}, {"ident": "EGVA", "name": "RAF Fairford", "lon": "-1.790", "lat": "51.682"}, {"ident": "EGVN", "name": "RAF Brize Norton", "lon": "-1.584", "lat": "51.750"}, {"ident": "EGVO", "name": "RAF Odiham", "lon": "-0.943", "lat": "51.234"}, {"ident": "EGWC", "name": "DCAE Cosford Air Base", "lon": "-2.306", "lat": "52.640"}, {"ident": "EGWU", "name": "RAF Northolt", "lon": "-0.418", "lat": "51.553"}, {"ident": "EGXC", "name": "RAF Coningsby", "lon": "-0.166", "lat": "53.093"}, {"ident": "EGXD", "name": "RAF Dishforth", "lon": "-1.420", "lat": "54.137"}, {"ident": "EGXE", "name": "RAF Leeming Air Base", "lon": "-1.535", "lat": "54.292"}, {"ident": "EGXG", "name": "Leeds East Airport", "lon": "-1.196", "lat": "53.834"}, {"ident": "EGXH", "name": "RAF Honington", "lon": "0.773", "lat": "52.343"}, {"ident": "EGXP", "name": "RAF Scampton", "lon": "-0.551", "lat": "53.308"}, {"ident": "EGXT", "name": "RAF Wittering", "lon": "-0.476", "lat": "52.613"}, {"ident": "EGXU", "name": "RAF Linton-On-Ouse", "lon": "-1.253", "lat": "54.049"}, {"ident": "EGXW", "name": "RAF Waddington", "lon": "-0.524", "lat": "53.166"}, {"ident": "EGXZ", "name": "RAF Topcliffe", "lon": "-1.382", "lat": "54.206"}, {"ident": "EGYD", "name": "RAF Cranwell", "lon": "-0.483", "lat": "53.030"}, {"ident": "EGYE", "name": "RAF Barkston Heath", "lon": "-0.562", "lat": "52.962"}, {"ident": "EGYM", "name": "RAF Marham", "lon": "0.551", "lat": "52.648"}, {"ident": "EHAM", "name": "Amsterdam Airport Schiphol", "lon": "4.764", "lat": "52.309"}, {"ident": "EHBD", "name": "Budel Airfield Kempen", "lon": "5.601", "lat": "51.255"}, {"ident": "EHBK", "name": "Maastricht Aachen Airport", "lon": "5.770", "lat": "50.912"}, {"ident": "EHDL", "name": "Deelen Air Base", "lon": "5.873", "lat": "52.061"}, {"ident": "EHDP", "name": "De Peel Air Base", "lon": "5.856", "lat": "51.517"}, {"ident": "EHEH", "name": "Eindhoven Airport", "lon": "5.375", "lat": "51.450"}, {"ident": "EHGG", "name": "Eelde Airport", "lon": "6.579", "lat": "53.120"}, {"ident": "EHGR", "name": "Gilze Rijen Air Base", "lon": "4.932", "lat": "51.567"}, {"ident": "EHKD", "name": "De Kooy Airport", "lon": "4.781", "lat": "52.923"}, {"ident": "EHLE", "name": "Lelystad Airport", "lon": "5.527", "lat": "52.460"}, {"ident": "EHLW", "name": "Leeuwarden Air Base", "lon": "5.761", "lat": "53.229"}, {"ident": "EHRD", "name": "Rotterdam The Hague Airport", "lon": "4.437", "lat": "51.957"}, {"ident": "EHTW", "name": "Twente Airport", "lon": "6.889", "lat": "52.276"}, {"ident": "EHVK", "name": "Volkel Air Base", "lon": "5.708", "lat": "51.657"}, {"ident": "EHWO", "name": "Woensdrecht Air Base", "lon": "4.342", "lat": "51.449"}, {"ident": "EICK", "name": "Cork Airport", "lon": "-8.491", "lat": "51.841"}, {"ident": "EICM", "name": "Galway Airport", "lon": "-8.942", "lat": "53.300"}, {"ident": "EIDL", "name": "Donegal Airport", "lon": "-8.341", "lat": "55.044"}, {"ident": "EIDW", "name": "Dublin Airport", "lon": "-6.270", "lat": "53.421"}, {"ident": "EIKN", "name": "Ireland West Knock Airport", "lon": "-8.818", "lat": "53.910"}, {"ident": "EIKY", "name": "Kerry Airport", "lon": "-9.524", "lat": "52.181"}, {"ident": "EIME", "name": "Casement Air Base", "lon": "-6.451", "lat": "53.302"}, {"ident": "EINN", "name": "Shannon Airport", "lon": "-8.925", "lat": "52.702"}, {"ident": "EISG", "name": "Sligo Airport", "lon": "-8.599", "lat": "54.280"}, {"ident": "EIWF", "name": "Waterford Airport", "lon": "-7.087", "lat": "52.187"}, {"ident": "EIWT", "name": "Weston Airport", "lon": "-6.486", "lat": "53.352"}, {"ident": "EKAH", "name": "Aarhus Airport", "lon": "10.618", "lat": "56.303"}, {"ident": "EKBI", "name": "Billund Airport", "lon": "9.152", "lat": "55.740"}, {"ident": "EKCH", "name": "Copenhagen Kastrup Airport", "lon": "12.656", "lat": "55.618"}, {"ident": "EKEB", "name": "Esbjerg Airport", "lon": "8.553", "lat": "55.526"}, {"ident": "EKKA", "name": "Karup Airport", "lon": "9.125", "lat": "56.298"}, {"ident": "EKMB", "name": "Lolland Falster Maribo Airport", "lon": "11.440", "lat": "54.699"}, {"ident": "EKOD", "name": "Odense Airport", "lon": "10.331", "lat": "55.477"}, {"ident": "EKRK", "name": "Copenhagen Roskilde Airport", "lon": "12.131", "lat": "55.586"}, {"ident": "EKRN", "name": "Bornholm Airport", "lon": "14.760", "lat": "55.063"}, {"ident": "EKSB", "name": "S\u00f8nderborg Airport", "lon": "9.792", "lat": "54.964"}, {"ident": "EKSN", "name": "Sindal Airport", "lon": "10.229", "lat": "57.504"}, {"ident": "EKSP", "name": "Skrydstrup Air Base", "lon": "9.267", "lat": "55.221"}, {"ident": "EKSV", "name": "Skive Airport", "lon": "9.173", "lat": "56.550"}, {"ident": "EKTS", "name": "Thisted Airport", "lon": "8.705", "lat": "57.069"}, {"ident": "EKVD", "name": "Kolding Vamdrup Airfield", "lon": "9.331", "lat": "55.436"}, {"ident": "EKVG", "name": "V\u00e1gar Airport", "lon": "-7.277", "lat": "62.064"}, {"ident": "EKVJ", "name": "Stauning Airport", "lon": "8.354", "lat": "55.990"}, {"ident": "EKYT", "name": "Aalborg Airport", "lon": "9.849", "lat": "57.093"}, {"ident": "ELLX", "name": "Luxembourg-Findel International Airport", "lon": "6.204", "lat": "49.623"}, {"ident": "ENAL", "name": "\u00c5lesund Airport, Vigra", "lon": "6.120", "lat": "62.562"}, {"ident": "ENAN", "name": "And\u00f8ya Airport, Andenes", "lon": "16.144", "lat": "69.293"}, {"ident": "ENAT", "name": "Alta Airport", "lon": "23.372", "lat": "69.976"}, {"ident": "ENBN", "name": "Br\u00f8nn\u00f8ysund Airport, Br\u00f8nn\u00f8y", "lon": "12.217", "lat": "65.461"}, {"ident": "ENBO", "name": "Bod\u00f8 Airport", "lon": "14.365", "lat": "67.269"}, {"ident": "ENBR", "name": "Bergen Airport, Flesland", "lon": "5.218", "lat": "60.293"}, {"ident": "ENBS", "name": "B\u00e5tsfjord Airport", "lon": "29.691", "lat": "70.601"}, {"ident": "ENBV", "name": "Berlev\u00e5g Airport", "lon": "29.034", "lat": "70.871"}, {"ident": "ENCN", "name": "Kristiansand Airport, Kjevik", "lon": "8.085", "lat": "58.204"}, {"ident": "ENDU", "name": "Bardufoss Airport", "lon": "18.540", "lat": "69.056"}, {"ident": "ENEN", "name": "Engel\u00f8y Airport", "lon": "14.992", "lat": "67.967"}, {"ident": "ENEV", "name": "Harstad/Narvik Airport, Evenes", "lon": "16.678", "lat": "68.491"}, {"ident": "ENFG", "name": "Fagernes Airport, Leirin", "lon": "9.288", "lat": "61.016"}, {"ident": "ENFL", "name": "Flor\u00f8 Airport", "lon": "5.025", "lat": "61.584"}, {"ident": "ENGM", "name": "Oslo Airport, Gardermoen", "lon": "11.100", "lat": "60.194"}, {"ident": "ENHD", "name": "Haugesund Airport, Karm\u00f8y", "lon": "5.208", "lat": "59.345"}, {"ident": "ENHF", "name": "Hammerfest Airport", "lon": "23.669", "lat": "70.680"}, {"ident": "ENHV", "name": "Honningsv\u00e5g Airport, Valan", "lon": "25.984", "lat": "71.010"}, {"ident": "ENKB", "name": "Kristiansund Airport, Kvernberget", "lon": "7.825", "lat": "63.112"}, {"ident": "ENKR", "name": "Kirkenes Airport, H\u00f8ybuktmoen", "lon": "29.891", "lat": "69.726"}, {"ident": "ENLK", "name": "Leknes Airport", "lon": "13.609", "lat": "68.152"}, {"ident": "ENMH", "name": "Mehamn Airport", "lon": "27.827", "lat": "71.030"}, {"ident": "ENML", "name": "Molde Airport, \u00c5r\u00f8", "lon": "7.263", "lat": "62.745"}, {"ident": "ENMS", "name": "Mosj\u00f8en Airport, Kj\u00e6rstad", "lon": "13.215", "lat": "65.784"}, {"ident": "ENNA", "name": "Lakselv Airport, Banak", "lon": "24.973", "lat": "70.069"}, {"ident": "ENNO", "name": "Notodden Airport", "lon": "9.212", "lat": "59.566"}, {"ident": "ENOL", "name": "\u00d8rland Airport", "lon": "9.604", "lat": "63.699"}, {"ident": "ENOV", "name": "\u00d8rsta-Volda Airport, Hovden", "lon": "6.074", "lat": "62.180"}, {"ident": "ENRA", "name": "Mo i Rana Airport, R\u00f8ssvoll", "lon": "14.301", "lat": "66.364"}, {"ident": "ENRM", "name": "R\u00f8rvik Airport, Ryum", "lon": "11.146", "lat": "64.838"}, {"ident": "ENRO", "name": "R\u00f8ros Airport", "lon": "11.342", "lat": "62.578"}, {"ident": "ENRY", "name": "Moss Airport, Rygge", "lon": "10.785", "lat": "59.379"}, {"ident": "ENSB", "name": "Svalbard Airport, Longyear", "lon": "15.466", "lat": "78.246"}, {"ident": "ENSH", "name": "Svolv\u00e6r Airport, Helle", "lon": "14.669", "lat": "68.243"}, {"ident": "ENSK", "name": "Stokmarknes Airport, Skagen", "lon": "15.033", "lat": "68.579"}, {"ident": "ENSN", "name": "Skien Airport", "lon": "9.567", "lat": "59.185"}, {"ident": "ENSO", "name": "Stord Airport, S\u00f8rstokken", "lon": "5.341", "lat": "59.792"}, {"ident": "ENSR", "name": "S\u00f8rkjosen Airport", "lon": "20.959", "lat": "69.787"}, {"ident": "ENSS", "name": "Vard\u00f8 Airport, Svartnes", "lon": "31.045", "lat": "70.355"}, {"ident": "ENST", "name": "Sandnessj\u00f8en Airport, Stokka", "lon": "12.469", "lat": "65.957"}, {"ident": "ENTC", "name": "Troms\u00f8 Airport, Langnes", "lon": "18.919", "lat": "69.683"}, {"ident": "ENTO", "name": "Sandefjord Airport, Torp", "lon": "10.259", "lat": "59.187"}, {"ident": "ENVA", "name": "Trondheim Airport, V\u00e6rnes", "lon": "10.924", "lat": "63.458"}, {"ident": "ENVD", "name": "Vads\u00f8 Airport", "lon": "29.845", "lat": "70.065"}, {"ident": "ENZV", "name": "Stavanger Airport, Sola", "lon": "5.638", "lat": "58.877"}, {"ident": "EPBP", "name": "Bia\u0142a Podlaska Airfield", "lon": "23.133", "lat": "52.001"}, {"ident": "EPBY", "name": "Bydgoszcz Ignacy Jan Paderewski Airport", "lon": "17.978", "lat": "53.097"}, {"ident": "EPCE", "name": "Cewice Air Base", "lon": "17.763", "lat": "54.416"}, {"ident": "EPDE", "name": "Deblin Military Air Base", "lon": "21.894", "lat": "51.551"}, {"ident": "EPGD", "name": "Gda\u0144sk Lech Wa\u0142\u0119sa Airport", "lon": "18.466", "lat": "54.378"}, {"ident": "EPIR", "name": "Inowroclaw Military Air Base", "lon": "18.331", "lat": "52.829"}, {"ident": "EPKK", "name": "Krak\u00f3w John Paul II International Airport", "lon": "19.785", "lat": "50.078"}, {"ident": "EPKS", "name": "Krzesiny Military Air Base", "lon": "16.966", "lat": "52.332"}, {"ident": "EPKT", "name": "Katowice International Airport", "lon": "19.080", "lat": "50.474"}, {"ident": "EPLK", "name": "Lask Military Air Base", "lon": "19.179", "lat": "51.552"}, {"ident": "EPLL", "name": "\u0141\u00f3d\u017a W\u0142adys\u0142aw Reymont Airport", "lon": "19.398", "lat": "51.722"}, {"ident": "EPLS", "name": "Leszno-Strzyzewice Airport", "lon": "16.522", "lat": "51.835"}, {"ident": "EPLY", "name": "Leczyca Military Air Base", "lon": "19.146", "lat": "52.005"}, {"ident": "EPMB", "name": "Malbork Military Air Base", "lon": "19.134", "lat": "54.027"}, {"ident": "EPMI", "name": "Miroslawiec Military Air Base", "lon": "16.083", "lat": "53.395"}, {"ident": "EPMM", "name": "Minsk Mazowiecki Military Air Base", "lon": "21.656", "lat": "52.195"}, {"ident": "EPMO", "name": "Modlin Airport", "lon": "20.652", "lat": "52.451"}, {"ident": "EPOK", "name": "Oksywie Military Air Base", "lon": "18.517", "lat": "54.580"}, {"ident": "EPPO", "name": "Pozna\u0144-\u0141awica Airport", "lon": "16.826", "lat": "52.421"}, {"ident": "EPPW", "name": "Powidz Military Air Base", "lon": "17.854", "lat": "52.379"}, {"ident": "EPRA", "name": "Radom Airport", "lon": "21.213", "lat": "51.389"}, {"ident": "EPRZ", "name": "Rzesz\u00f3w-Jasionka Airport", "lon": "22.019", "lat": "50.110"}, {"ident": "EPSC", "name": "Szczecin-Goleni\u00f3w \"Solidarno\u015b\u0107\" Airport", "lon": "14.902", "lat": "53.585"}, {"ident": "EPSN", "name": "Swidwin Military Air Base", "lon": "15.826", "lat": "53.791"}, {"ident": "EPSY", "name": "Olsztyn-Mazury Airport", "lon": "20.938", "lat": "53.482"}, {"ident": "EPTM", "name": "Tomaszow Mazowiecki Military Air Base", "lon": "20.098", "lat": "51.584"}, {"ident": "EPWA", "name": "Warsaw Chopin Airport", "lon": "20.967", "lat": "52.166"}, {"ident": "EPWR", "name": "Copernicus Wroc\u0142aw Airport", "lon": "16.886", "lat": "51.103"}, {"ident": "EPZG", "name": "Zielona G\u00f3ra-Babimost Airport", "lon": "15.799", "lat": "52.139"}, {"ident": "ES-0109", "name": "Folgueroles Airfield", "lon": "2.307", "lat": "41.953"}, {"ident": "ESCF", "name": "Malmen Air Base", "lon": "15.526", "lat": "58.402"}, {"ident": "ESDF", "name": "Ronneby Airport", "lon": "15.265", "lat": "56.267"}, {"ident": "ESFR", "name": "R\u00e5da Air Base", "lon": "13.053", "lat": "58.498"}, {"ident": "ESGG", "name": "Gothenburg-Landvetter Airport", "lon": "12.280", "lat": "57.663"}, {"ident": "ESGJ", "name": "J\u00f6nk\u00f6ping Airport", "lon": "14.069", "lat": "57.758"}, {"ident": "ESGP", "name": "Gothenburg City Airport", "lon": "11.870", "lat": "57.775"}, {"ident": "ESGR", "name": "Sk\u00f6vde Airport", "lon": "13.973", "lat": "58.456"}, {"ident": "ESGT", "name": "Trollh\u00e4ttan-V\u00e4nersborg Airport", "lon": "12.345", "lat": "58.318"}, {"ident": "ESIB", "name": "S\u00e5ten\u00e4s Air Base", "lon": "12.714", "lat": "58.426"}, {"ident": "ESKK", "name": "Karlskoga Airport", "lon": "14.496", "lat": "59.346"}, {"ident": "ESKM", "name": "Mora Airport", "lon": "14.511", "lat": "60.958"}, {"ident": "ESKN", "name": "Stockholm Skavsta Airport", "lon": "16.912", "lat": "58.789"}, {"ident": "ESKX", "name": "Bj\u00f6rkvik Air Base", "lon": "16.571", "lat": "58.791"}, {"ident": "ESMK", "name": "Kristianstad Airport", "lon": "14.085", "lat": "55.922"}, {"ident": "ESMQ", "name": "Kalmar Airport", "lon": "16.288", "lat": "56.686"}, {"ident": "ESMS", "name": "Malm\u00f6 Sturup Airport", "lon": "13.376", "lat": "55.536"}, {"ident": "ESMT", "name": "Halmstad Airport", "lon": "12.820", "lat": "56.691"}, {"ident": "ESMX", "name": "V\u00e4xj\u00f6 Kronoberg Airport", "lon": "14.728", "lat": "56.929"}, {"ident": "ESND", "name": "Sveg Airport", "lon": "14.423", "lat": "62.048"}, {"ident": "ESNG", "name": "G\u00e4llivare Airport", "lon": "20.815", "lat": "67.132"}, {"ident": "ESNK", "name": "Kramfors-Sollefte\u00e5 H\u00f6ga Kusten Airport", "lon": "17.769", "lat": "63.049"}, {"ident": "ESNL", "name": "Lycksele Airport", "lon": "18.716", "lat": "64.548"}, {"ident": "ESNN", "name": "Sundsvall-H\u00e4rn\u00f6sand Airport", "lon": "17.444", "lat": "62.528"}, {"ident": "ESNO", "name": "\u00d6rnsk\u00f6ldsvik Airport", "lon": "18.990", "lat": "63.408"}, {"ident": "ESNQ", "name": "Kiruna Airport", "lon": "20.337", "lat": "67.822"}, {"ident": "ESNS", "name": "Skellefte\u00e5 Airport", "lon": "21.077", "lat": "64.625"}, {"ident": "ESNU", "name": "Ume\u00e5 Airport", "lon": "20.283", "lat": "63.792"}, {"ident": "ESNV", "name": "Vilhelmina South Lapland Airport", "lon": "16.834", "lat": "64.579"}, {"ident": "ESNX", "name": "Arvidsjaur Airport", "lon": "19.282", "lat": "65.590"}, {"ident": "ESNY", "name": "S\u00f6derhamn Airport", "lon": "17.099", "lat": "61.262"}, {"ident": "ESNZ", "name": "\u00c5re \u00d6stersund Airport", "lon": "14.500", "lat": "63.194"}, {"ident": "ESOE", "name": "\u00d6rebro Airport", "lon": "15.038", "lat": "59.224"}, {"ident": "ESOH", "name": "Hagfors Airport", "lon": "13.579", "lat": "60.020"}, {"ident": "ESOK", "name": "Karlstad Airport", "lon": "13.337", "lat": "59.445"}, {"ident": "ESOW", "name": "Stockholm V\u00e4ster\u00e5s Airport", "lon": "16.634", "lat": "59.589"}, {"ident": "ESPA", "name": "Lule\u00e5 Airport", "lon": "22.122", "lat": "65.544"}, {"ident": "ESSA", "name": "Stockholm-Arlanda Airport", "lon": "17.919", "lat": "59.652"}, {"ident": "ESSB", "name": "Stockholm-Bromma Airport", "lon": "17.942", "lat": "59.354"}, {"ident": "ESSD", "name": "Dala Airport", "lon": "15.515", "lat": "60.422"}, {"ident": "ESSK", "name": "G\u00e4vle Sandviken Airport", "lon": "16.951", "lat": "60.593"}, {"ident": "ESSL", "name": "Link\u00f6ping City Airport", "lon": "15.681", "lat": "58.406"}, {"ident": "ESSP", "name": "Norrk\u00f6ping Airport", "lon": "16.251", "lat": "58.586"}, {"ident": "ESST", "name": "Torsby Airport", "lon": "12.991", "lat": "60.158"}, {"ident": "ESSU", "name": "Eskilstuna Airport", "lon": "16.708", "lat": "59.351"}, {"ident": "ESSV", "name": "Visby Airport", "lon": "18.346", "lat": "57.663"}, {"ident": "ESTA", "name": "\u00c4ngelholm-Helsingborg Airport", "lon": "12.847", "lat": "56.296"}, {"ident": "ESTL", "name": "Ljungbyhed Airport", "lon": "13.212", "lat": "56.083"}, {"ident": "ESUD", "name": "Storuman Airport", "lon": "17.697", "lat": "64.961"}, {"ident": "ESUP", "name": "Pajala Airport", "lon": "23.069", "lat": "67.246"}, {"ident": "ESUT", "name": "Hemavan Airport", "lon": "15.083", "lat": "65.806"}, {"ident": "ETAD", "name": "Spangdahlem Air Base", "lon": "6.693", "lat": "49.973"}, {"ident": "ETAR", "name": "Ramstein Air Base", "lon": "7.600", "lat": "49.437"}, {"ident": "ETHB", "name": "B\u00fcckeburg Air Base", "lon": "9.082", "lat": "52.279"}, {"ident": "ETHC", "name": "Celle Army Airfield", "lon": "10.022", "lat": "52.591"}, {"ident": "ETHF", "name": "Fritzlar Army Airfield", "lon": "9.286", "lat": "51.115"}, {"ident": "ETHL", "name": "Laupheim Air Base", "lon": "9.910", "lat": "48.220"}, {"ident": "ETHN", "name": "Niederstetten Army Air Base", "lon": "9.959", "lat": "49.392"}, {"ident": "ETHS", "name": "Fassberg Air Base", "lon": "10.186", "lat": "52.919"}, {"ident": "ETIC", "name": "Grafenwohr Army Air Field", "lon": "11.940", "lat": "49.699"}, {"ident": "ETIH", "name": "Hohenfels Army Air Field", "lon": "11.836", "lat": "49.218"}, {"ident": "ETMN", "name": "Nordholz Naval Airbase", "lon": "8.658", "lat": "53.768"}, {"ident": "ETND", "name": "Diepholz Air Base", "lon": "8.342", "lat": "52.586"}, {"ident": "ETNG", "name": "Geilenkirchen Air Base", "lon": "6.042", "lat": "50.961"}, {"ident": "ETNH", "name": "Hohn Air Base", "lon": "9.538", "lat": "54.312"}, {"ident": "ETNL", "name": "Rostock-Laage Airport", "lon": "12.278", "lat": "53.918"}, {"ident": "ETNN", "name": "N\u00f6rvenich Air Base", "lon": "6.658", "lat": "50.831"}, {"ident": "ETNS", "name": "Schleswig Air Base", "lon": "9.516", "lat": "54.459"}, {"ident": "ETNT", "name": "Wittmundhafen Air Base", "lon": "7.667", "lat": "53.548"}, {"ident": "ETNW", "name": "Wunstorf Air Base", "lon": "9.427", "lat": "52.457"}, {"ident": "ETOU", "name": "Wiesbaden Army Airfield", "lon": "8.325", "lat": "50.050"}, {"ident": "ETSB", "name": "B\u00fcchel Air Base", "lon": "7.063", "lat": "50.174"}, {"ident": "ETSH", "name": "Holzdorf Air Base", "lon": "13.168", "lat": "51.768"}, {"ident": "ETSI", "name": "Ingolstadt Manching Airport", "lon": "11.534", "lat": "48.716"}, {"ident": "ETSL", "name": "Lechfeld Air Base", "lon": "10.861", "lat": "48.186"}, {"ident": "ETSN", "name": "Neuburg AFB", "lon": "11.211", "lat": "48.711"}, {"ident": "EVDA", "name": "Daugavpils Intrenational Airport", "lon": "26.665", "lat": "55.945"}, {"ident": "EVKA", "name": "J\u0113kabpils Air Base", "lon": "25.892", "lat": "56.535"}, {"ident": "EVLA", "name": "Liep\u0101ja International Airport", "lon": "21.097", "lat": "56.518"}, {"ident": "EVRA", "name": "Riga International Airport", "lon": "23.971", "lat": "56.924"}, {"ident": "EVTA", "name": "J\u016brmala Airport", "lon": "23.224", "lat": "56.942"}, {"ident": "EVVA", "name": "Ventspils International Airport", "lon": "21.544", "lat": "57.358"}, {"ident": "EYKA", "name": "Kaunas International Airport", "lon": "24.085", "lat": "54.964"}, {"ident": "EYKD", "name": "K\u0117dainiai Air Base", "lon": "23.956", "lat": "55.312"}, {"ident": "EYPA", "name": "Palanga International Airport", "lon": "21.094", "lat": "55.973"}, {"ident": "EYPP", "name": "Panev\u0117\u017eys Air Base", "lon": "24.461", "lat": "55.729"}, {"ident": "EYSA", "name": "\u0160iauliai International Airport", "lon": "23.395", "lat": "55.894"}, {"ident": "EYSB", "name": "Barysiai Airfield", "lon": "23.558", "lat": "56.071"}, {"ident": "EYVI", "name": "Vilnius International Airport", "lon": "25.286", "lat": "54.634"}, {"ident": "GB-OUK", "name": "Outer Skerries Airport", "lon": "-0.750", "lat": "60.425"}, {"ident": "GCFV", "name": "Fuerteventura Airport", "lon": "-13.864", "lat": "28.453"}, {"ident": "GCHI", "name": "El Hierro Airport", "lon": "-17.887", "lat": "27.815"}, {"ident": "GCLA", "name": "La Palma Airport", "lon": "-17.756", "lat": "28.626"}, {"ident": "GCLP", "name": "Gran Canaria Airport", "lon": "-15.387", "lat": "27.932"}, {"ident": "GCRR", "name": "C\u00e9sar Manrique-Lanzarote Airport", "lon": "-13.605", "lat": "28.945"}, {"ident": "GCTS", "name": "Tenerife Sur Airport", "lon": "-16.573", "lat": "28.044"}, {"ident": "GCXO", "name": "Tenerife Norte-Ciudad de La Laguna Airport", "lon": "-16.341", "lat": "28.483"}, {"ident": "GEML", "name": "Melilla Airport", "lon": "-2.956", "lat": "35.280"}, {"ident": "HU-0002", "name": "Kalocsa/Fokt\u0151 Airport", "lon": "18.942", "lat": "46.550"}, {"ident": "LAKU", "name": "Kuk\u00ebs International Airport", "lon": "20.416", "lat": "42.036"}, {"ident": "LAKV", "name": "Ku\u00e7ov\u00eb Air Base", "lon": "19.902", "lat": "40.772"}, {"ident": "LATI", "name": "Tirana International Airport Mother Teresa", "lon": "19.721", "lat": "41.415"}, {"ident": "LBBG", "name": "Burgas Airport", "lon": "27.515", "lat": "42.570"}, {"ident": "LBGO", "name": "Gorna Oryahovitsa Airport", "lon": "25.713", "lat": "43.151"}, {"ident": "LBPD", "name": "Plovdiv International Airport", "lon": "24.851", "lat": "42.068"}, {"ident": "LBPG", "name": "Graf Ignatievo Air Base", "lon": "24.714", "lat": "42.290"}, {"ident": "LBPL", "name": "Dolna Mitropoliya Air Base", "lon": "24.503", "lat": "43.451"}, {"ident": "LBSF", "name": "Sofia Airport", "lon": "23.411", "lat": "42.697"}, {"ident": "LBWB", "name": "Balchik Airfield", "lon": "28.181", "lat": "43.424"}, {"ident": "LBWN", "name": "Varna Airport", "lon": "27.825", "lat": "43.232"}, {"ident": "LCRA", "name": "RAF Akrotiri", "lon": "32.988", "lat": "34.590"}, {"ident": "LDDU", "name": "Dubrovnik Airport", "lon": "18.268", "lat": "42.561"}, {"ident": "LDOS", "name": "Osijek Airport", "lon": "18.810", "lat": "45.463"}, {"ident": "LDPL", "name": "Pula Airport", "lon": "13.922", "lat": "44.894"}, {"ident": "LDRI", "name": "Rijeka Airport", "lon": "14.570", "lat": "45.217"}, {"ident": "LDSB", "name": "Bra\u010d Airport", "lon": "16.680", "lat": "43.286"}, {"ident": "LDSP", "name": "Split Airport", "lon": "16.298", "lat": "43.539"}, {"ident": "LDZA", "name": "Zagreb Airport", "lon": "16.069", "lat": "45.743"}, {"ident": "LDZD", "name": "Zadar Airport", "lon": "15.347", "lat": "44.108"}, {"ident": "LEAB", "name": "Albacete Airport / Los Llanos Air Base", "lon": "-1.864", "lat": "38.949"}, {"ident": "LEAL", "name": "Alicante-Elche Miguel Hern\u00e1ndez Airport", "lon": "-0.558", "lat": "38.282"}, {"ident": "LEAM", "name": "Almer\u00eda Airport", "lon": "-2.370", "lat": "36.844"}, {"ident": "LEAS", "name": "Asturias Airport", "lon": "-6.035", "lat": "43.564"}, {"ident": "LEBA", "name": "C\u00f3rdoba Airport", "lon": "-4.849", "lat": "37.842"}, {"ident": "LEBB", "name": "Bilbao Airport", "lon": "-2.911", "lat": "43.301"}, {"ident": "LEBG", "name": "Burgos Airport", "lon": "-3.621", "lat": "42.358"}, {"ident": "LEBL", "name": "Josep Tarradellas Barcelona-El Prat Airport", "lon": "2.078", "lat": "41.297"}, {"ident": "LEBZ", "name": "Badajoz Airport", "lon": "-6.821", "lat": "38.891"}, {"ident": "LECH", "name": "Castell\u00f3n-Costa Azahar Airport", "lon": "0.073", "lat": "40.214"}, {"ident": "LECO", "name": "A Coru\u00f1a Airport", "lon": "-8.377", "lat": "43.302"}, {"ident": "LECU", "name": "Madrid-Cuatro Vientos Airport", "lon": "-3.785", "lat": "40.371"}, {"ident": "LEDA", "name": "Lleida-Alguaire Airport", "lon": "0.535", "lat": "41.728"}, {"ident": "LEGA", "name": "Armilla Air Base", "lon": "-3.636", "lat": "37.133"}, {"ident": "LEGE", "name": "Girona-Costa Brava Airport", "lon": "2.761", "lat": "41.901"}, {"ident": "LEGR", "name": "F.G.L. Airport Granada-Ja\u00e9n Airport", "lon": "-3.777", "lat": "37.189"}, {"ident": "LEGT", "name": "Getafe Air Base", "lon": "-3.724", "lat": "40.294"}, {"ident": "LEIB", "name": "Ibiza Airport", "lon": "1.373", "lat": "38.873"}, {"ident": "LEJR", "name": "Jerez Airport", "lon": "-6.060", "lat": "36.745"}, {"ident": "LELC", "name": "San Javier Airport", "lon": "-0.812", "lat": "37.775"}, {"ident": "LELN", "name": "Le\u00f3n Airport", "lon": "-5.656", "lat": "42.589"}, {"ident": "LELO", "name": "Logro\u00f1o-Agoncillo Airport", "lon": "-2.322", "lat": "42.461"}, {"ident": "LEMD", "name": "Adolfo Su\u00e1rez Madrid\u2013Barajas Airport", "lon": "-3.563", "lat": "40.472"}, {"ident": "LEMG", "name": "M\u00e1laga-Costa del Sol Airport", "lon": "-4.499", "lat": "36.675"}, {"ident": "LEMH", "name": "Menorca Airport", "lon": "4.219", "lat": "39.863"}, {"ident": "LEMO", "name": "Moron Air Base", "lon": "-5.616", "lat": "37.175"}, {"ident": "LEPA", "name": "Palma de Mallorca Airport", "lon": "2.739", "lat": "39.552"}, {"ident": "LEPP", "name": "Pamplona Airport", "lon": "-1.646", "lat": "42.770"}, {"ident": "LERI", "name": "Alcantarilla Air Base", "lon": "-1.230", "lat": "37.951"}, {"ident": "LERL", "name": "Ciudad Real International Airport", "lon": "-3.970", "lat": "38.856"}, {"ident": "LERS", "name": "Reus Airport", "lon": "1.167", "lat": "41.147"}, {"ident": "LERT", "name": "Rota Naval Station Airport", "lon": "-6.349", "lat": "36.645"}, {"ident": "LESA", "name": "Salamanca Airport", "lon": "-5.502", "lat": "40.952"}, {"ident": "LESO", "name": "San Sebasti\u00e1n Airport", "lon": "-1.791", "lat": "43.356"}, {"ident": "LEST", "name": "Santiago-Rosal\u00eda de Castro Airport", "lon": "-8.415", "lat": "42.896"}, {"ident": "LETL", "name": "Teruel Airport", "lon": "-1.218", "lat": "40.403"}, {"ident": "LETO", "name": "Madrid\u2013Torrej\u00f3n Airport / Torrej\u00f3n Air Base", "lon": "-3.457", "lat": "40.488"}, {"ident": "LEVC", "name": "Valencia Airport", "lon": "-0.482", "lat": "39.489"}, {"ident": "LEVD", "name": "Valladolid Airport", "lon": "-4.852", "lat": "41.706"}, {"ident": "LEVT", "name": "Vitoria Airport", "lon": "-2.724", "lat": "42.883"}, {"ident": "LEVX", "name": "Vigo Airport", "lon": "-8.627", "lat": "42.232"}, {"ident": "LEXJ", "name": "Seve Ballesteros-Santander Airport", "lon": "-3.820", "lat": "43.427"}, {"ident": "LEZG", "name": "Zaragoza Airport", "lon": "-1.042", "lat": "41.666"}, {"ident": "LEZL", "name": "Sevilla Airport", "lon": "-5.893", "lat": "37.418"}, {"ident": "LFAC", "name": "Calais-Dunkerque Airport", "lon": "1.955", "lat": "50.962"}, {"ident": "LFAG", "name": "A\u00e9rodrome de P\u00e9ronne Saint-Quentin", "lon": "3.030", "lat": "49.868"}, {"ident": "LFAT", "name": "Le Touquet-C\u00f4te d'Opale Airport", "lon": "1.621", "lat": "50.517"}, {"ident": "LFAV", "name": "Valenciennes-Denain Airfield", "lon": "3.461", "lat": "50.326"}, {"ident": "LFAY", "name": "A\u00e9rodrome d'Amiens-Glisy", "lon": "2.387", "lat": "49.873"}, {"ident": "LFBA", "name": "Agen-La Garenne Airport", "lon": "0.591", "lat": "44.175"}, {"ident": "LFBC", "name": "Cazaux (BA 120) Air Base", "lon": "-1.125", "lat": "44.533"}, {"ident": "LFBD", "name": "Bordeaux-M\u00e9rignac Airport", "lon": "-0.716", "lat": "44.828"}, {"ident": "LFBE", "name": "Bergerac-Roumani\u00e8re Airport", "lon": "0.519", "lat": "44.825"}, {"ident": "LFBF", "name": "Toulouse-Francazal (BA 101) Air Base", "lon": "1.367", "lat": "43.546"}, {"ident": "LFBG", "name": "Cognac-Ch\u00e2teaubernard (BA 709) Air Base", "lon": "-0.317", "lat": "45.658"}, {"ident": "LFBH", "name": "La Rochelle-\u00cele de R\u00e9 Airport", "lon": "-1.195", "lat": "46.179"}, {"ident": "LFBI", "name": "Poitiers-Biard Airport", "lon": "0.307", "lat": "46.588"}, {"ident": "LFBK", "name": "Montlu\u00e7on-Gu\u00e9ret Airport", "lon": "2.364", "lat": "46.223"}, {"ident": "LFBL", "name": "Limoges Airport", "lon": "1.179", "lat": "45.863"}, {"ident": "LFBM", "name": "Mont-de-Marsan (BA 118) Air Base", "lon": "-0.507", "lat": "43.912"}, {"ident": "LFBN", "name": "Niort-Souch\u00e9 Airport", "lon": "-0.395", "lat": "46.313"}, {"ident": "LFBO", "name": "Toulouse-Blagnac Airport", "lon": "1.364", "lat": "43.629"}, {"ident": "LFBP", "name": "Pau Pyr\u00e9n\u00e9es Airport", "lon": "-0.419", "lat": "43.380"}, {"ident": "LFBT", "name": "Tarbes-Lourdes-Pyr\u00e9n\u00e9es Airport", "lon": "-0.006", "lat": "43.179"}, {"ident": "LFBU", "name": "Angoul\u00eame-Brie-Champniers Airport", "lon": "0.221", "lat": "45.729"}, {"ident": "LFBX", "name": "P\u00e9rigueux-Bassillac Airport", "lon": "0.816", "lat": "45.198"}, {"ident": "LFBZ", "name": "Biarritz-Anglet-Bayonne Airport", "lon": "-1.531", "lat": "43.468"}, {"ident": "LFCC", "name": "A\u00e9rodrome de Cahors-Lalbenque", "lon": "1.475", "lat": "44.351"}, {"ident": "LFCG", "name": "A\u00e9rodrome de Saint-Girons - Antichan", "lon": "1.103", "lat": "43.008"}, {"ident": "LFCH", "name": "A\u00e9rodrome d'Arcachon-La Teste-de-Buch", "lon": "-1.111", "lat": "44.596"}, {"ident": "LFCI", "name": "Albi-Le S\u00e9questre Airport", "lon": "2.113", "lat": "43.914"}, {"ident": "LFCK", "name": "Castres-Mazamet Airport", "lon": "2.289", "lat": "43.556"}, {"ident": "LFCR", "name": "Rodez-Marcillac Airport", "lon": "2.483", "lat": "44.408"}, {"ident": "LFCY", "name": "Royan-M\u00e9dis Airport", "lon": "-0.973", "lat": "45.628"}, {"ident": "LFDH", "name": "Auch-Lamothe Airport", "lon": "0.602", "lat": "43.688"}, {"ident": "LFDI", "name": "Libourne-Artigues-de-Lussac Airport", "lon": "-0.135", "lat": "44.982"}, {"ident": "LFDN", "name": "Rochefort-Saint-Agnant (BA 721) Airport", "lon": "-0.983", "lat": "45.888"}, {"ident": "LFEY", "name": "\u00cele d'Yeu Airport", "lon": "-2.391", "lat": "46.719"}, {"ident": "LFGA", "name": "Colmar-Houssen Airport", "lon": "7.359", "lat": "48.110"}, {"ident": "LFGJ", "name": "Dole-Tavaux Airport", "lon": "5.435", "lat": "47.043"}, {"ident": "LFGW", "name": "Verdun-Le Rozelier Airfield", "lon": "5.469", "lat": "49.122"}, {"ident": "LFHO", "name": "Aubenas-Ard\u00e8che M\u00e9ridional Airport", "lon": "4.372", "lat": "44.544"}, {"ident": "LFHP", "name": "Le Puy-Loudes Airport", "lon": "3.763", "lat": "45.081"}, {"ident": "LFJL", "name": "Metz-Nancy-Lorraine Airport", "lon": "6.251", "lat": "48.982"}, {"ident": "LFJR", "name": "Angers-Loire Airport", "lon": "-0.312", "lat": "47.560"}, {"ident": "LFKB", "name": "Bastia-Poretta Airport", "lon": "9.484", "lat": "42.553"}, {"ident": "LFKC", "name": "Calvi-Sainte-Catherine Airport", "lon": "8.793", "lat": "42.524"}, {"ident": "LFKF", "name": "Figari Sud-Corse Airport", "lon": "9.098", "lat": "41.501"}, {"ident": "LFKJ", "name": "Ajaccio-Napol\u00e9on Bonaparte Airport", "lon": "8.803", "lat": "41.924"}, {"ident": "LFKS", "name": "Solenzara (BA 126) Air Base", "lon": "9.406", "lat": "41.924"}, {"ident": "LFLA", "name": "Auxerre-Branches Airport", "lon": "3.497", "lat": "47.850"}, {"ident": "LFLB", "name": "Chamb\u00e9ry-Savoie Airport", "lon": "5.880", "lat": "45.638"}, {"ident": "LFLC", "name": "Clermont-Ferrand Auvergne Airport", "lon": "3.169", "lat": "45.787"}, {"ident": "LFLD", "name": "Bourges Airport", "lon": "2.370", "lat": "47.058"}, {"ident": "LFLH", "name": "Chalon-Champforgeuil Airport", "lon": "4.818", "lat": "46.826"}, {"ident": "LFLI", "name": "Annemasse Airfield", "lon": "6.268", "lat": "46.192"}, {"ident": "LFLL", "name": "Lyon Saint-Exup\u00e9ry Airport", "lon": "5.081", "lat": "45.726"}, {"ident": "LFLM", "name": "A\u00e9rodrome de M\u00e2con-Charnay", "lon": "4.796", "lat": "46.295"}, {"ident": "LFLN", "name": "Saint-Yan Airport", "lon": "4.013", "lat": "46.412"}, {"ident": "LFLO", "name": "Roanne-Renaison Airport", "lon": "4.001", "lat": "46.058"}, {"ident": "LFLP", "name": "Annecy-Haute-Savoie-Mont Blanc Airport", "lon": "6.106", "lat": "45.931"}, {"ident": "LFLS", "name": "Grenoble-Is\u00e8re Airport", "lon": "5.329", "lat": "45.363"}, {"ident": "LFLU", "name": "Valence-Chabeuil Airport", "lon": "4.970", "lat": "44.922"}, {"ident": "LFLV", "name": "Vichy-Charmeil Airport", "lon": "3.404", "lat": "46.170"}, {"ident": "LFLW", "name": "Aurillac Airport", "lon": "2.422", "lat": "44.891"}, {"ident": "LFLX", "name": "Ch\u00e2teauroux-D\u00e9ols \"Marcel Dassault\" Airport", "lon": "1.721", "lat": "46.860"}, {"ident": "LFLY", "name": "Lyon-Bron Airport", "lon": "4.944", "lat": "45.727"}, {"ident": "LFMC", "name": "Le Luc-Le Cannet Airport", "lon": "6.387", "lat": "43.385"}, {"ident": "LFMD", "name": "Cannes-Mandelieu Airport", "lon": "6.953", "lat": "43.542"}, {"ident": "LFMH", "name": "Saint-\u00c9tienne-Bouth\u00e9on Airport", "lon": "4.296", "lat": "45.541"}, {"ident": "LFMI", "name": "Istres Le Tub\u00e9 Air Base", "lon": "4.924", "lat": "43.523"}, {"ident": "LFMK", "name": "Carcassonne Airport", "lon": "2.306", "lat": "43.216"}, {"ident": "LFML", "name": "Marseille Provence Airport", "lon": "5.221", "lat": "43.439"}, {"ident": "LFMN", "name": "Nice-C\u00f4te d'Azur Airport", "lon": "7.216", "lat": "43.658"}, {"ident": "LFMO", "name": "Orange-Caritat (BA 115) Air Base", "lon": "4.867", "lat": "44.140"}, {"ident": "LFMP", "name": "Perpignan-Rivesaltes (Llaban\u00e8re) Airport", "lon": "2.871", "lat": "42.740"}, {"ident": "LFMQ", "name": "Le Castellet Airport", "lon": "5.785", "lat": "43.252"}, {"ident": "LFMS", "name": "A\u00e9rodrome d'Al\u00e8s C\u00e9vennes", "lon": "4.142", "lat": "44.070"}, {"ident": "LFMT", "name": "Montpellier-M\u00e9diterran\u00e9e Airport", "lon": "3.963", "lat": "43.576"}, {"ident": "LFMU", "name": "B\u00e9ziers-Vias Airport", "lon": "3.354", "lat": "43.324"}, {"ident": "LFMV", "name": "Avignon-Caumont Airport", "lon": "4.902", "lat": "43.907"}, {"ident": "LFMY", "name": "Salon-de-Provence (BA 701) Air Base", "lon": "5.109", "lat": "43.606"}, {"ident": "LFNB", "name": "Mende-Brenoux Airfield", "lon": "3.533", "lat": "44.502"}, {"ident": "LFOA", "name": "Avord (BA 702) Air Base", "lon": "2.632", "lat": "47.053"}, {"ident": "LFOB", "name": "Paris Beauvais Till\u00e9 Airport", "lon": "2.113", "lat": "49.454"}, {"ident": "LFOC", "name": "Ch\u00e2teaudun (BA 279) Air Base", "lon": "1.377", "lat": "48.058"}, {"ident": "LFOE", "name": "\u00c9vreux-Fauville (BA 105) Air Base", "lon": "1.220", "lat": "49.029"}, {"ident": "LFOH", "name": "Le Havre Octeville Airport", "lon": "0.088", "lat": "49.534"}, {"ident": "LFOI", "name": "Abbeville", "lon": "1.832", "lat": "50.144"}, {"ident": "LFOJ", "name": "Orl\u00e9ans-Bricy (BA 123) Air Base", "lon": "1.761", "lat": "47.988"}, {"ident": "LFOK", "name": "Ch\u00e2lons-Vatry Airport", "lon": "4.206", "lat": "48.773"}, {"ident": "LFOP", "name": "Rouen Airport", "lon": "1.175", "lat": "49.384"}, {"ident": "LFOT", "name": "Tours-Val-de-Loire Airport", "lon": "0.728", "lat": "47.432"}, {"ident": "LFOU", "name": "Cholet Le Pontreau Airport", "lon": "-0.877", "lat": "47.082"}, {"ident": "LFOV", "name": "Laval-Entrammes Airport", "lon": "-0.743", "lat": "48.031"}, {"ident": "LFPB", "name": "Paris-Le Bourget Airport", "lon": "2.441", "lat": "48.969"}, {"ident": "LFPC", "name": "Creil Air Base", "lon": "2.519", "lat": "49.254"}, {"ident": "LFPG", "name": "Charles de Gaulle International Airport", "lon": "2.550", "lat": "49.013"}, {"ident": "LFPM", "name": "Melun-Villaroche Air Base", "lon": "2.671", "lat": "48.605"}, {"ident": "LFPN", "name": "Toussus-le-Noble Airport", "lon": "2.106", "lat": "48.752"}, {"ident": "LFPO", "name": "Paris-Orly Airport", "lon": "2.379", "lat": "48.723"}, {"ident": "LFPT", "name": "A\u00e9rodrome de Pontoise - Cormeilles en Vexin", "lon": "2.041", "lat": "49.097"}, {"ident": "LFPV", "name": "Villacoublay-V\u00e9lizy (BA 107) Air Base", "lon": "2.192", "lat": "48.774"}, {"ident": "LFQB", "name": "Troyes-Barberey Airport", "lon": "4.017", "lat": "48.322"}, {"ident": "LFQE", "name": "\u00c9tain-Rouvres Air Base", "lon": "5.672", "lat": "49.227"}, {"ident": "LFQG", "name": "Nevers-Fourchambault Airport", "lon": "3.113", "lat": "47.003"}, {"ident": "LFQJ", "name": "Maubeuge-\u00c9lesmes Airfield", "lon": "4.033", "lat": "50.311"}, {"ident": "LFQP", "name": "Phalsbourg-Bourscheid Air Base", "lon": "7.205", "lat": "48.768"}, {"ident": "LFQQ", "name": "Lille-Lesquin Airport", "lon": "3.087", "lat": "50.563"}, {"ident": "LFQT", "name": "Merville-Calonne Airport", "lon": "2.642", "lat": "50.618"}, {"ident": "LFQV", "name": "Charleville-M\u00e9zi\u00e8res Ardennes-Etienne Rich\u00e9 Airfield", "lon": "4.647", "lat": "49.784"}, {"ident": "LFQW", "name": "A\u00e9rodrome de Vesoul-Frotey", "lon": "6.204", "lat": "47.638"}, {"ident": "LFRB", "name": "Brest Bretagne Airport", "lon": "-4.419", "lat": "48.448"}, {"ident": "LFRC", "name": "Cherbourg-Maupertus Airport", "lon": "-1.470", "lat": "49.650"}, {"ident": "LFRD", "name": "Dinard-Pleurtuit-Saint-Malo Airport", "lon": "-2.080", "lat": "48.588"}, {"ident": "LFRE", "name": "La Baule-Escoublac Airport", "lon": "-2.346", "lat": "47.289"}, {"ident": "LFRF", "name": "Granville Airport", "lon": "-1.564", "lat": "48.883"}, {"ident": "LFRG", "name": "Deauville-Saint-Gatien Airport", "lon": "0.154", "lat": "49.365"}, {"ident": "LFRH", "name": "Lorient South Brittany (Bretagne Sud) Airport", "lon": "-3.440", "lat": "47.761"}, {"ident": "LFRI", "name": "La Roche-sur-Yon Airport", "lon": "-1.379", "lat": "46.702"}, {"ident": "LFRJ", "name": "Landivisiau Air Base", "lon": "-4.152", "lat": "48.530"}, {"ident": "LFRK", "name": "Caen-Carpiquet Airport", "lon": "-0.450", "lat": "49.173"}, {"ident": "LFRL", "name": "Lanv\u00e9oc-Poulmic Air Base", "lon": "-4.445", "lat": "48.282"}, {"ident": "LFRM", "name": "Le Mans-Arnage Airport", "lon": "0.202", "lat": "47.949"}, {"ident": "LFRN", "name": "Rennes-Saint-Jacques Airport", "lon": "-1.735", "lat": "48.069"}, {"ident": "LFRO", "name": "Lannion-C\u00f4te de Granit Airport", "lon": "-3.472", "lat": "48.754"}, {"ident": "LFRQ", "name": "Quimper-Cornouaille Airport", "lon": "-4.168", "lat": "47.975"}, {"ident": "LFRS", "name": "Nantes Atlantique Airport", "lon": "-1.611", "lat": "47.153"}, {"ident": "LFRT", "name": "Saint-Brieuc-Armor Airport", "lon": "-2.854", "lat": "48.538"}, {"ident": "LFRU", "name": "Morlaix-Ploujean Airport", "lon": "-3.816", "lat": "48.603"}, {"ident": "LFRV", "name": "Vannes-Meucon Airport", "lon": "-2.719", "lat": "47.723"}, {"ident": "LFRZ", "name": "Saint-Nazaire-Montoir Airport", "lon": "-2.157", "lat": "47.311"}, {"ident": "LFSB", "name": "EuroAirport Basel-Mulhouse-Freiburg Airport", "lon": "7.529", "lat": "47.590"}, {"ident": "LFSD", "name": "Dijon-Bourgogne Airport", "lon": "5.090", "lat": "47.269"}, {"ident": "LFSG", "name": "\u00c9pinal-Mirecourt Airport", "lon": "6.070", "lat": "48.325"}, {"ident": "LFSI", "name": "Saint-Dizier-Robinson (BA 113) Air Base", "lon": "4.899", "lat": "48.636"}, {"ident": "LFSL", "name": "Brive-Souillac", "lon": "1.486", "lat": "45.040"}, {"ident": "LFSM", "name": "Montb\u00e9liard-Courcelles Airfield", "lon": "6.791", "lat": "47.487"}, {"ident": "LFSN", "name": "Nancy-Essey Airport", "lon": "6.230", "lat": "48.692"}, {"ident": "LFSO", "name": "Nancy-Ochey (BA 133) Air Base", "lon": "5.955", "lat": "48.583"}, {"ident": "LFST", "name": "Strasbourg Airport", "lon": "7.628", "lat": "48.538"}, {"ident": "LFSX", "name": "Luxeuil-Saint-Sauveur (BA 116) Air Base", "lon": "6.364", "lat": "47.783"}, {"ident": "LFTH", "name": "Toulon-Hy\u00e8res Airport", "lon": "6.146", "lat": "43.097"}, {"ident": "LFTW", "name": "N\u00eemes-Arles-Camargue Airport", "lon": "4.416", "lat": "43.757"}, {"ident": "LFXA", "name": "Amb\u00e9rieu Air Base (BA 278)", "lon": "5.328", "lat": "45.987"}, {"ident": "LGAD", "name": "Andravida Air Base", "lon": "21.293", "lat": "37.921"}, {"ident": "LGAL", "name": "Alexandroupoli Democritus Airport", "lon": "25.956", "lat": "40.856"}, {"ident": "LGAV", "name": "Eleftherios Venizelos International Airport", "lon": "23.944", "lat": "37.936"}, {"ident": "LGBL", "name": "Nea Anchialos National Airport", "lon": "22.794", "lat": "39.220"}, {"ident": "LGEL", "name": "Elefsis Airport", "lon": "23.556", "lat": "38.064"}, {"ident": "LGHI", "name": "Chios Island National Airport", "lon": "26.141", "lat": "38.343"}, {"ident": "LGIO", "name": "Ioannina Airport", "lon": "20.823", "lat": "39.696"}, {"ident": "LGIR", "name": "Heraklion International Nikos Kazantzakis Airport", "lon": "25.180", "lat": "35.340"}, {"ident": "LGKF", "name": "Kefallinia Airport", "lon": "20.500", "lat": "38.120"}, {"ident": "LGKL", "name": "Kalamata Airport", "lon": "22.025", "lat": "37.068"}, {"ident": "LGKO", "name": "Kos Airport", "lon": "27.092", "lat": "36.793"}, {"ident": "LGKP", "name": "Karpathos Airport", "lon": "27.146", "lat": "35.421"}, {"ident": "LGKR", "name": "Ioannis Kapodistrias International Airport", "lon": "19.912", "lat": "39.602"}, {"ident": "LGKV", "name": "Kavala Alexander the Great International Airport", "lon": "24.619", "lat": "40.913"}, {"ident": "LGKZ", "name": "Filippos Airport", "lon": "21.841", "lat": "40.286"}, {"ident": "LGMK", "name": "Mikonos Airport", "lon": "25.348", "lat": "37.435"}, {"ident": "LGMT", "name": "Mytilene International Airport", "lon": "26.598", "lat": "39.057"}, {"ident": "LGPZ", "name": "Aktion National Airport", "lon": "20.765", "lat": "38.925"}, {"ident": "LGRP", "name": "Diagoras Airport", "lon": "28.086", "lat": "36.405"}, {"ident": "LGRX", "name": "Patras Araxos Agamemnon Airport", "lon": "21.426", "lat": "38.151"}, {"ident": "LGSA", "name": "Chania International Airport", "lon": "24.150", "lat": "35.532"}, {"ident": "LGSK", "name": "Skiathos Island National Airport", "lon": "23.504", "lat": "39.177"}, {"ident": "LGSM", "name": "Samos Airport", "lon": "26.912", "lat": "37.690"}, {"ident": "LGSR", "name": "Santorini Airport", "lon": "25.479", "lat": "36.399"}, {"ident": "LGST", "name": "Sitia Airport", "lon": "26.101", "lat": "35.216"}, {"ident": "LGTG", "name": "Tanagra Air Base", "lon": "23.565", "lat": "38.340"}, {"ident": "LGTS", "name": "Thessaloniki Macedonia International Airport", "lon": "22.971", "lat": "40.520"}, {"ident": "LGZA", "name": "Zakynthos International Airport \"Dionysios Solomos\"", "lon": "20.884", "lat": "37.751"}, {"ident": "LHBP", "name": "Budapest Liszt Ferenc International Airport", "lon": "19.261", "lat": "47.430"}, {"ident": "LHDC", "name": "Debrecen International Airport", "lon": "21.615", "lat": "47.489"}, {"ident": "LHKE", "name": "Kecskem\u00e9t Air Base", "lon": "19.749", "lat": "46.917"}, {"ident": "LHPP", "name": "P\u00e9cs-Pog\u00e1ny Airport", "lon": "18.241", "lat": "45.991"}, {"ident": "LHPR", "name": "Gy\u0151r-P\u00e9r International Airport", "lon": "17.814", "lat": "47.624"}, {"ident": "LHSM", "name": "H\u00e9v\u00edz\u2013Balaton Airport", "lon": "17.159", "lat": "46.686"}, {"ident": "LHSN", "name": "Szolnok Air Base", "lon": "20.235", "lat": "47.123"}, {"ident": "LHTA", "name": "Tasz\u00e1r Air Base", "lon": "17.917", "lat": "46.393"}, {"ident": "LHTL", "name": "T\u00f6k\u00f6l Airport", "lon": "18.981", "lat": "47.345"}, {"ident": "LIBA", "name": "Amendola Air Base", "lon": "15.718", "lat": "41.541"}, {"ident": "LIBC", "name": "Crotone Airport", "lon": "17.080", "lat": "38.997"}, {"ident": "LIBD", "name": "Bari Karol Wojty\u0142a Airport", "lon": "16.761", "lat": "41.139"}, {"ident": "LIBF", "name": "Foggia \"Gino Lisa\" Airport", "lon": "15.535", "lat": "41.433"}, {"ident": "LIBG", "name": "Taranto-Grottaglie \"Marcello Arlotta\" Airport", "lon": "17.403", "lat": "40.518"}, {"ident": "LIBN", "name": "Lecce Galatina Air Base", "lon": "18.133", "lat": "40.239"}, {"ident": "LIBP", "name": "Abruzzo Airport", "lon": "14.181", "lat": "42.432"}, {"ident": "LIBR", "name": "Brindisi Airport", "lon": "17.947", "lat": "40.658"}, {"ident": "LIBV", "name": "Gioia Del Colle Air Base", "lon": "16.933", "lat": "40.768"}, {"ident": "LICA", "name": "Lamezia Terme Airport", "lon": "16.242", "lat": "38.905"}, {"ident": "LICB", "name": "Comiso Airport", "lon": "14.607", "lat": "36.995"}, {"ident": "LICC", "name": "Catania-Fontanarossa Airport", "lon": "15.066", "lat": "37.467"}, {"ident": "LICD", "name": "Lampedusa Airport", "lon": "12.618", "lat": "35.498"}, {"ident": "LICG", "name": "Pantelleria Airport", "lon": "11.969", "lat": "36.817"}, {"ident": "LICJ", "name": "Falcone\u2013Borsellino Airport", "lon": "13.091", "lat": "38.176"}, {"ident": "LICP", "name": "Palermo-Boccadifalco Airport", "lon": "13.313", "lat": "38.111"}, {"ident": "LICR", "name": "Reggio Calabria Airport", "lon": "15.652", "lat": "38.071"}, {"ident": "LICT", "name": "Vincenzo Florio Airport Trapani-Birgi", "lon": "12.488", "lat": "37.911"}, {"ident": "LICZ", "name": "Sigonella Navy Air Base", "lon": "14.922", "lat": "37.402"}, {"ident": "LIDT", "name": "Trento-Mattarello Airport", "lon": "11.124", "lat": "46.021"}, {"ident": "LIEA", "name": "Alghero-Fertilia Airport", "lon": "8.291", "lat": "40.632"}, {"ident": "LIED", "name": "Decimomannu Air Base", "lon": "8.972", "lat": "39.354"}, {"ident": "LIEE", "name": "Cagliari Elmas Airport", "lon": "9.054", "lat": "39.251"}, {"ident": "LIEO", "name": "Olbia Costa Smeralda Airport", "lon": "9.518", "lat": "40.899"}, {"ident": "LIET", "name": "Tortol\u00ec Airport", "lon": "9.683", "lat": "39.919"}, {"ident": "LILA", "name": "Alessandria Airport", "lon": "8.625", "lat": "44.925"}, {"ident": "LILE", "name": "Biella-Cerrione Airport", "lon": "8.103", "lat": "45.495"}, {"ident": "LILI", "name": "Vercelli Airport", "lon": "8.418", "lat": "45.310"}, {"ident": "LILM", "name": "Casale Monferrato Airport", "lon": "8.456", "lat": "45.111"}, {"ident": "LILN", "name": "Varese-Venegono Airport", "lon": "8.888", "lat": "45.742"}, {"ident": "LIMA", "name": "Torino-Aeritalia Airport", "lon": "7.603", "lat": "45.086"}, {"ident": "LIMC", "name": "Malpensa International Airport", "lon": "8.728", "lat": "45.631"}, {"ident": "LIME", "name": "Milan Bergamo Airport", "lon": "9.704", "lat": "45.674"}, {"ident": "LIMF", "name": "Turin Airport", "lon": "7.650", "lat": "45.201"}, {"ident": "LIMG", "name": "Villanova D'Albenga International Airport", "lon": "8.127", "lat": "44.051"}, {"ident": "LIMJ", "name": "Genoa Cristoforo Colombo Airport", "lon": "8.838", "lat": "44.413"}, {"ident": "LIML", "name": "Milano Linate Airport", "lon": "9.277", "lat": "45.445"}, {"ident": "LIMN", "name": "Cameri Air Base [MIL]", "lon": "8.669", "lat": "45.530"}, {"ident": "LIMP", "name": "Parma Airport", "lon": "10.296", "lat": "44.825"}, {"ident": "LIMR", "name": "Novi Ligure Airport", "lon": "8.786", "lat": "44.780"}, {"ident": "LIMS", "name": "Piacenza San Damiano Air Base", "lon": "9.723", "lat": "44.913"}, {"ident": "LIMW", "name": "Aosta Airport", "lon": "7.369", "lat": "45.738"}, {"ident": "LIMZ", "name": "Cuneo International Airport", "lon": "7.623", "lat": "44.547"}, {"ident": "LIPA", "name": "Aviano Air Base", "lon": "12.597", "lat": "46.032"}, {"ident": "LIPB", "name": "Bolzano Airport", "lon": "11.326", "lat": "46.460"}, {"ident": "LIPC", "name": "Cervia Air Base", "lon": "12.307", "lat": "44.224"}, {"ident": "LIPE", "name": "Bologna Guglielmo Marconi Airport", "lon": "11.289", "lat": "44.535"}, {"ident": "LIPH", "name": "Treviso-Sant'Angelo Airport", "lon": "12.194", "lat": "45.648"}, {"ident": "LIPI", "name": "Rivolto Air Base", "lon": "13.049", "lat": "45.979"}, {"ident": "LIPK", "name": "Forl\u00ec Airport", "lon": "12.070", "lat": "44.195"}, {"ident": "LIPL", "name": "Ghedi Air Base", "lon": "10.268", "lat": "45.432"}, {"ident": "LIPO", "name": "Brescia Airport", "lon": "10.331", "lat": "45.429"}, {"ident": "LIPQ", "name": "Trieste\u2013Friuli Venezia Giulia Airport", "lon": "13.472", "lat": "45.827"}, {"ident": "LIPR", "name": "Federico Fellini International Airport", "lon": "12.612", "lat": "44.020"}, {"ident": "LIPS", "name": "Istrana Air Base", "lon": "12.083", "lat": "45.685"}, {"ident": "LIPU", "name": "Padova Airfield", "lon": "11.848", "lat": "45.396"}, {"ident": "LIPX", "name": "Verona Villafranca Airport", "lon": "10.889", "lat": "45.396"}, {"ident": "LIPY", "name": "Marche Airport", "lon": "13.362", "lat": "43.616"}, {"ident": "LIPZ", "name": "Venice Marco Polo Airport", "lon": "12.352", "lat": "45.505"}, {"ident": "LIQS", "name": "Siena-Ampugnano Airport", "lon": "11.255", "lat": "43.256"}, {"ident": "LIQW", "name": "Sarzana-Luni Air Base", "lon": "9.988", "lat": "44.088"}, {"ident": "LIRA", "name": "Ciampino\u2013G. B. Pastine International Airport", "lon": "12.595", "lat": "41.799"}, {"ident": "LIRE", "name": "Pratica Di Mare Air Base", "lon": "12.445", "lat": "41.654"}, {"ident": "LIRF", "name": "Leonardo da Vinci\u2013Fiumicino Airport", "lon": "12.239", "lat": "41.800"}, {"ident": "LIRG", "name": "Guidonia Air Base", "lon": "12.741", "lat": "41.990"}, {"ident": "LIRI", "name": "Salerno Costa d'Amalfi Airport", "lon": "14.911", "lat": "40.620"}, {"ident": "LIRJ", "name": "Marina Di Campo Airport", "lon": "10.239", "lat": "42.760"}, {"ident": "LIRL", "name": "Latina Air Base", "lon": "12.909", "lat": "41.542"}, {"ident": "LIRM", "name": "Grazzanise Air Base", "lon": "14.082", "lat": "41.061"}, {"ident": "LIRN", "name": "Naples International Airport", "lon": "14.291", "lat": "40.886"}, {"ident": "LIRP", "name": "Pisa International Airport", "lon": "10.393", "lat": "43.684"}, {"ident": "LIRQ", "name": "Peretola Airport", "lon": "11.205", "lat": "43.810"}, {"ident": "LIRS", "name": "Grosseto Air Base", "lon": "11.072", "lat": "42.760"}, {"ident": "LIRU", "name": "Urbe Airport", "lon": "12.499", "lat": "41.952"}, {"ident": "LIRV", "name": "Viterbo Airport", "lon": "12.064", "lat": "42.430"}, {"ident": "LIRZ", "name": "Perugia San Francesco d'Assisi \u2013 Umbria International Airport", "lon": "12.513", "lat": "43.096"}, {"ident": "LJCE", "name": "Cerklje Airport", "lon": "15.530", "lat": "45.900"}, {"ident": "LJLJ", "name": "Ljubljana Jo\u017ee Pu\u010dnik Airport", "lon": "14.458", "lat": "46.224"}, {"ident": "LJMB", "name": "Maribor Airport", "lon": "15.686", "lat": "46.480"}, {"ident": "LJPZ", "name": "Portoro\u017e Airport", "lon": "13.615", "lat": "45.473"}, {"ident": "LKCV", "name": "\u010c\u00e1slav Air Base", "lon": "15.382", "lat": "49.940"}, {"ident": "LKKB", "name": "Kbely Air Base", "lon": "14.544", "lat": "50.121"}, {"ident": "LKKU", "name": "Kunovice Airport", "lon": "17.440", "lat": "49.029"}, {"ident": "LKKV", "name": "Karlovy Vary International Airport", "lon": "12.915", "lat": "50.203"}, {"ident": "LKLN", "name": "Plze\u0148-L\u00edn\u011b Airport", "lon": "13.275", "lat": "49.675"}, {"ident": "LKMT", "name": "Ostrava Leos Jan\u00e1\u010dek Airport", "lon": "18.111", "lat": "49.696"}, {"ident": "LKNA", "name": "N\u00e1m\u011b\u0161\u0165 Air Base", "lon": "16.125", "lat": "49.166"}, {"ident": "LKPD", "name": "Pardubice Airport", "lon": "15.739", "lat": "50.013"}, {"ident": "LKPO", "name": "P\u0159erov Air Base", "lon": "17.405", "lat": "49.426"}, {"ident": "LKPR", "name": "V\u00e1clav Havel Airport Prague", "lon": "14.260", "lat": "50.101"}, {"ident": "LKTB", "name": "Brno-Tu\u0159any Airport", "lon": "16.694", "lat": "49.151"}, {"ident": "LKVO", "name": "Vodochody Airport", "lon": "14.396", "lat": "50.217"}, {"ident": "LMML", "name": "Malta International Airport", "lon": "14.477", "lat": "35.857"}, {"ident": "LOAN", "name": "Wiener Neustadt East Airport", "lon": "16.260", "lat": "47.843"}, {"ident": "LOWG", "name": "Graz Airport", "lon": "15.440", "lat": "46.991"}, {"ident": "LOWI", "name": "Innsbruck Airport", "lon": "11.344", "lat": "47.260"}, {"ident": "LOWK", "name": "Klagenfurt Airport", "lon": "14.338", "lat": "46.643"}, {"ident": "LOWL", "name": "Linz-H\u00f6rsching Airport / Vogler Air Base", "lon": "14.188", "lat": "48.233"}, {"ident": "LOWS", "name": "Salzburg Airport", "lon": "13.004", "lat": "47.793"}, {"ident": "LOWW", "name": "Vienna International Airport", "lon": "16.570", "lat": "48.110"}, {"ident": "LOXZ", "name": "Hinterstoisser Air Base", "lon": "14.744", "lat": "47.203"}, {"ident": "LPAR", "name": "Alverca Air Base", "lon": "-9.030", "lat": "38.883"}, {"ident": "LPAZ", "name": "Santa Maria Airport", "lon": "-25.171", "lat": "36.971"}, {"ident": "LPBG", "name": "Bragan\u00e7a Airport", "lon": "-6.707", "lat": "41.858"}, {"ident": "LPBJ", "name": "Beja Airport / Airbase", "lon": "-7.932", "lat": "38.079"}, {"ident": "LPBR", "name": "Braga Municipal Aerodrome", "lon": "-8.445", "lat": "41.587"}, {"ident": "LPCB", "name": "Aerodromo de Castelo Branco", "lon": "-7.441", "lat": "39.847"}, {"ident": "LPCO", "name": "Aerodromo Municipal de Coimbra", "lon": "-8.471", "lat": "40.159"}, {"ident": "LPCS", "name": "Cascais Airport", "lon": "-9.355", "lat": "38.725"}, {"ident": "LPEV", "name": "\u00c9vora Airfield", "lon": "-7.890", "lat": "38.534"}, {"ident": "LPFL", "name": "Flores Airport", "lon": "-31.131", "lat": "39.455"}, {"ident": "LPFR", "name": "Faro Airport", "lon": "-7.966", "lat": "37.014"}, {"ident": "LPGR", "name": "Graciosa Airport", "lon": "-28.030", "lat": "39.092"}, {"ident": "LPHR", "name": "Horta Airport", "lon": "-28.716", "lat": "38.520"}, {"ident": "LPLA", "name": "Lajes Airport", "lon": "-27.091", "lat": "38.762"}, {"ident": "LPMA", "name": "Madeira Airport", "lon": "-16.774", "lat": "32.698"}, {"ident": "LPMR", "name": "Monte Real Air Base", "lon": "-8.887", "lat": "39.828"}, {"ident": "LPMT", "name": "Montijo Air Base", "lon": "-9.036", "lat": "38.704"}, {"ident": "LPOV", "name": "Ovar Air Base", "lon": "-8.646", "lat": "40.916"}, {"ident": "LPPD", "name": "Jo\u00e3o Paulo II Airport", "lon": "-25.698", "lat": "37.741"}, {"ident": "LPPI", "name": "Pico Airport", "lon": "-28.441", "lat": "38.554"}, {"ident": "LPPM", "name": "Portim\u00e3o Airport", "lon": "-8.584", "lat": "37.149"}, {"ident": "LPPR", "name": "Francisco de S\u00e1 Carneiro Airport", "lon": "-8.681", "lat": "41.248"}, {"ident": "LPPS", "name": "Porto Santo Airport", "lon": "-16.350", "lat": "33.073"}, {"ident": "LPPT", "name": "Humberto Delgado Airport (Lisbon Portela Airport)", "lon": "-9.136", "lat": "38.781"}, {"ident": "LPSJ", "name": "S\u00e3o Jorge Airport", "lon": "-28.176", "lat": "38.666"}, {"ident": "LPSO", "name": "Aerodromo Ponte de Sor", "lon": "-8.057", "lat": "39.212"}, {"ident": "LPST", "name": "Sintra Air Base", "lon": "-9.340", "lat": "38.831"}, {"ident": "LPTN", "name": "Tancos Airbase", "lon": "-8.365", "lat": "39.475"}, {"ident": "LPVL", "name": "Vilar de Luz Airfield", "lon": "-8.516", "lat": "41.277"}, {"ident": "LPVR", "name": "Vila Real Airport", "lon": "-7.720", "lat": "41.274"}, {"ident": "LPVZ", "name": "Aerodromo Goncalves Lobato (Viseu Airport)", "lon": "-7.889", "lat": "40.725"}, {"ident": "LQBK", "name": "Banja Luka International Airport", "lon": "17.298", "lat": "44.941"}, {"ident": "LQMO", "name": "Mostar International Airport", "lon": "17.846", "lat": "43.283"}, {"ident": "LQSA", "name": "Sarajevo International Airport", "lon": "18.331", "lat": "43.825"}, {"ident": "LQTZ", "name": "Tuzla International Airport", "lon": "18.725", "lat": "44.459"}, {"ident": "LR79", "name": "Ianca Air Base", "lon": "27.431", "lat": "45.159"}, {"ident": "LR80", "name": "Fete\u015fti Air Base", "lon": "27.727", "lat": "44.392"}, {"ident": "LR82", "name": "Boboc Air Base", "lon": "26.979", "lat": "45.216"}, {"ident": "LRAR", "name": "Arad International Airport", "lon": "21.262", "lat": "46.177"}, {"ident": "LRBC", "name": "Bac\u0103u Airport", "lon": "26.910", "lat": "46.522"}, {"ident": "LRBM", "name": "Maramure\u0219 International Airport", "lon": "23.467", "lat": "47.661"}, {"ident": "LRBS", "name": "B\u0103neasa International Airport", "lon": "26.102", "lat": "44.503"}, {"ident": "LRCK", "name": "Mihail Kog\u0103lniceanu International Airport", "lon": "28.488", "lat": "44.362"}, {"ident": "LRCL", "name": "Cluj-Napoca International Airport", "lon": "23.686", "lat": "46.785"}, {"ident": "LRCS", "name": "Caransebe\u015f Airport", "lon": "22.253", "lat": "45.420"}, {"ident": "LRCT", "name": "C\u00e2mpia Turzii Air Base", "lon": "23.886", "lat": "46.502"}, {"ident": "LRCV", "name": "Craiova Airport", "lon": "23.889", "lat": "44.318"}, {"ident": "LRIA", "name": "Ia\u015fi Airport", "lon": "27.621", "lat": "47.179"}, {"ident": "LROD", "name": "Oradea International Airport", "lon": "21.903", "lat": "47.025"}, {"ident": "LROP", "name": "Henri Coand\u0103 International Airport", "lon": "26.085", "lat": "44.571"}, {"ident": "LROV", "name": "Bra\u0219ov-Ghimbav International Airport (U.C.)", "lon": "25.523", "lat": "45.706"}, {"ident": "LRSB", "name": "Sibiu International Airport", "lon": "24.091", "lat": "45.786"}, {"ident": "LRSM", "name": "Satu Mare Airport", "lon": "22.886", "lat": "47.703"}, {"ident": "LRSV", "name": "Suceava Stefan cel Mare Airport", "lon": "26.354", "lat": "47.688"}, {"ident": "LRTC", "name": "Tulcea Danube Delta Airport", "lon": "28.714", "lat": "45.062"}, {"ident": "LRTM", "name": "Transilvania T\u00e2rgu Mure\u015f International Airport", "lon": "24.413", "lat": "46.468"}, {"ident": "LRTR", "name": "Timi\u015foara Traian Vuia Airport", "lon": "21.338", "lat": "45.810"}, {"ident": "LSGC", "name": "Les Eplatures Airport", "lon": "6.793", "lat": "47.084"}, {"ident": "LSGG", "name": "Geneva Cointrin International Airport", "lon": "6.109", "lat": "46.238"}, {"ident": "LSGS", "name": "Sion Airport", "lon": "7.327", "lat": "46.219"}, {"ident": "LSMA", "name": "Alpnach Air Base", "lon": "8.284", "lat": "46.944"}, {"ident": "LSMD", "name": "D\u00fcbendorf Air Base", "lon": "8.648", "lat": "47.399"}, {"ident": "LSME", "name": "Emmen Air Base", "lon": "8.305", "lat": "47.092"}, {"ident": "LSMP", "name": "Payerne Air Base", "lon": "6.915", "lat": "46.843"}, {"ident": "LSZA", "name": "Lugano Airport", "lon": "8.911", "lat": "46.004"}, {"ident": "LSZB", "name": "Bern Belp Airport", "lon": "7.497", "lat": "46.914"}, {"ident": "LSZG", "name": "Grenchen Airport", "lon": "7.417", "lat": "47.182"}, {"ident": "LSZH", "name": "Z\u00fcrich Airport", "lon": "8.548", "lat": "47.458"}, {"ident": "LSZR", "name": "St Gallen Altenrhein Airport", "lon": "9.561", "lat": "47.485"}, {"ident": "LSZS", "name": "Samedan Airport", "lon": "9.884", "lat": "46.534"}, {"ident": "LTBU", "name": "Tekirda\u011f \u00c7orlu Airport", "lon": "27.919", "lat": "41.138"}, {"ident": "LUBL", "name": "B\u0103l\u021bi International Airport", "lon": "27.777", "lat": "47.843"}, {"ident": "LUBM", "name": "M\u0103rcule\u015fti International Airport", "lon": "28.213", "lat": "47.863"}, {"ident": "LUCH", "name": "Cahul International Airport", "lon": "28.264", "lat": "45.844"}, {"ident": "LUKK", "name": "Chi\u015fin\u0103u International Airport", "lon": "28.931", "lat": "46.928"}, {"ident": "LUTR", "name": "Tiraspol Airport", "lon": "29.591", "lat": "46.868"}, {"ident": "LUZ", "name": "Lublin Airport", "lon": "22.714", "lat": "51.240"}, {"ident": "LWOH", "name": "Ohrid St. Paul the Apostle Airport", "lon": "20.742", "lat": "41.180"}, {"ident": "LWSK", "name": "Skopje International Airport", "lon": "21.621", "lat": "41.962"}, {"ident": "LXGB", "name": "Gibraltar Airport", "lon": "-5.350", "lat": "36.151"}, {"ident": "LYBE", "name": "Belgrade Nikola Tesla Airport", "lon": "20.309", "lat": "44.818"}, {"ident": "LYBT", "name": "Batajnica Air Base", "lon": "20.258", "lat": "44.935"}, {"ident": "LYKV", "name": "Morava Airport", "lon": "20.587", "lat": "43.818"}, {"ident": "LYNI", "name": "Nis Airport", "lon": "21.854", "lat": "43.337"}, {"ident": "LYPG", "name": "Podgorica Airport / Podgorica Golubovci Airbase", "lon": "19.252", "lat": "42.359"}, {"ident": "LYTV", "name": "Tivat Airport", "lon": "18.723", "lat": "42.405"}, {"ident": "LZIB", "name": "M. R. \u0160tef\u00e1nik Airport", "lon": "17.213", "lat": "48.170"}, {"ident": "LZKZ", "name": "Ko\u0161ice Airport", "lon": "21.241", "lat": "48.663"}, {"ident": "LZMC", "name": "Kuchy\u0148a Air Base", "lon": "17.118", "lat": "48.402"}, {"ident": "LZPP", "name": "Pie\u0161\u0165any Airport", "lon": "17.828", "lat": "48.625"}, {"ident": "LZSL", "name": "Slia\u010d Airport", "lon": "19.134", "lat": "48.638"}, {"ident": "LZTT", "name": "Poprad-Tatry Airport", "lon": "20.241", "lat": "49.074"}, {"ident": "LZZI", "name": "\u017dilina Airport", "lon": "18.614", "lat": "49.231"}, {"ident": "RMU", "name": "Regi\u00f3n de Murcia International Airport", "lon": "-1.125", "lat": "37.803"}, {"ident": "SE-0016", "name": "Scandinavian Mountains Airport", "lon": "12.843", "lat": "61.158"}, {"ident": "UA-0005", "name": "Nizhyn Air Base", "lon": "31.871", "lat": "51.089"}, {"ident": "UA-0010", "name": "Oktyabrskoe Air Base", "lon": "34.100", "lat": "45.320"}, {"ident": "UA-0012", "name": "Kirovskoe Air Base", "lon": "35.183", "lat": "45.167"}, {"ident": "UA-0020", "name": "Melitopol Air Base", "lon": "35.305", "lat": "46.880"}, {"ident": "UA-0022", "name": "Kacha Air Base", "lon": "33.572", "lat": "44.780"}, {"ident": "UA-0025", "name": "Bila Tserkva Airfield", "lon": "30.030", "lat": "49.795"}, {"ident": "UA-0028", "name": "Zhovtneve Air Base", "lon": "28.670", "lat": "45.640"}, {"ident": "UA-0029", "name": "Bolshoy Tokmak Air Base", "lon": "35.708", "lat": "47.285"}, {"ident": "UKBB", "name": "Boryspil International Airport", "lon": "30.895", "lat": "50.345"}, {"ident": "UKCM", "name": "Mariupol International Airport", "lon": "37.450", "lat": "47.076"}, {"ident": "UKCW", "name": "Luhansk International Airport", "lon": "39.374", "lat": "48.417"}, {"ident": "UKDD", "name": "Dnipropetrovsk International Airport", "lon": "35.101", "lat": "48.357"}, {"ident": "UKDE", "name": "Zaporizhzhia International Airport", "lon": "35.316", "lat": "47.867"}, {"ident": "UKDR", "name": "Kryvyi Rih International Airport", "lon": "33.210", "lat": "48.043"}, {"ident": "UKFB", "name": "Sevastopol International Airport / Belbek Air Base", "lon": "33.575", "lat": "44.692"}, {"ident": "UKFF", "name": "Simferopol International Airport", "lon": "33.975", "lat": "45.052"}, {"ident": "UKFG", "name": "Gvardeyskoe Air Base", "lon": "33.977", "lat": "45.115"}, {"ident": "UKFI", "name": "Saky Air Base", "lon": "33.599", "lat": "45.091"}, {"ident": "UKFY", "name": "Dzhankoy Airport", "lon": "34.419", "lat": "45.701"}, {"ident": "UKHH", "name": "Kharkiv International Airport", "lon": "36.290", "lat": "49.925"}, {"ident": "UKKE", "name": "Cherkasy International Airport", "lon": "31.995", "lat": "49.416"}, {"ident": "UKKK", "name": "Kiev Zhuliany International Airport", "lon": "30.452", "lat": "50.402"}, {"ident": "UKKM", "name": "Gostomel Airport", "lon": "30.192", "lat": "50.604"}, {"ident": "UKKO", "name": "Ozerne Air Base", "lon": "28.738", "lat": "50.158"}, {"ident": "UKLH", "name": "Khmelnytskyi Airport", "lon": "26.933", "lat": "49.360"}, {"ident": "UKLI", "name": "Ivano-Frankivsk International Airport", "lon": "24.686", "lat": "48.884"}, {"ident": "UKLL", "name": "Lviv International Airport", "lon": "23.956", "lat": "49.812"}, {"ident": "UKLN", "name": "Chernivtsi International Airport", "lon": "25.981", "lat": "48.259"}, {"ident": "UKLR", "name": "Rivne International Airport", "lon": "26.142", "lat": "50.607"}, {"ident": "UKLU", "name": "Uzhhorod International Airport", "lon": "22.263", "lat": "48.634"}, {"ident": "UKOH", "name": "Kherson International Airport", "lon": "32.506", "lat": "46.676"}, {"ident": "UKON", "name": "Mykolaiv International Airport", "lon": "31.920", "lat": "47.058"}, {"ident": "UKOO", "name": "Odessa International Airport", "lon": "30.677", "lat": "46.427"}, {"ident": "UMBB", "name": "Brest Airport", "lon": "23.898", "lat": "52.108"}, {"ident": "UMGG", "name": "Gomel Airport", "lon": "31.017", "lat": "52.527"}, {"ident": "UMII", "name": "Vitebsk Vostochny Airport", "lon": "30.350", "lat": "55.126"}, {"ident": "UMMA", "name": "Baranavichi Air Base", "lon": "26.050", "lat": "53.100"}, {"ident": "UMMG", "name": "Hrodna Airport", "lon": "24.054", "lat": "53.602"}, {"ident": "UMMS", "name": "Minsk National Airport", "lon": "28.040", "lat": "53.888"}, {"ident": "UMNB", "name": "Babruisk Air Base", "lon": "29.205", "lat": "53.105"}, {"ident": "UMOO", "name": "Mogilev Airport", "lon": "30.095", "lat": "53.955"}, {"ident": "XK-0001", "name": "KFOR Base Airfield", "lon": "21.194", "lat": "42.347"}]
